Timestamp,Algo_ms,Loop_ms,FPS,Body_X,Body_Y,Alt_Z,Marker_Yaw,Cam_X,Cam_Y,Cam_Z,Cam_Roll,Cam_Pitch,Cam_Yaw
13:28:48.442,19.26,21.62,24.80,-0.086,-0.064,0.796,28.68,-0.064,0.086,0.796,179.63,12.67,28.68
13:28:48.777,20.22,21.87,29.85,-0.086,-0.064,0.796,28.65,-0.064,0.086,0.796,179.36,13.06,28.65
13:28:49.115,22.01,23.58,29.56,-0.086,-0.064,0.796,28.65,-0.064,0.086,0.796,179.38,13.05,28.65
13:28:49.453,19.86,21.71,29.56,-0.086,-0.064,0.796,28.67,-0.064,0.086,0.796,179.41,13.02,28.67
13:28:49.791,24.89,26.55,29.62,-0.086,-0.064,0.796,28.66,-0.064,0.086,0.796,179.47,12.84,28.66
13:28:50.126,17.81,19.36,29.86,-0.086,-0.064,0.796,28.66,-0.064,0.086,0.796,179.47,12.83,28.66
13:28:50.467,22.69,25.04,29.29,-0.086,-0.064,0.796,28.67,-0.064,0.086,0.796,179.45,12.89,28.67
13:28:50.807,19.83,21.54,29.42,-0.086,-0.064,0.796,28.67,-0.064,0.086,0.796,179.45,12.88,28.67
13:28:51.142,21.96,23.87,29.83,-0.086,-0.064,0.796,28.67,-0.064,0.086,0.796,179.40,13.06,28.67
13:28:51.477,22.26,23.59,29.86,-0.086,-0.064,0.796,28.67,-0.064,0.086,0.796,179.37,13.10,28.67
13:28:51.816,20.54,22.17,29.52,-0.086,-0.064,0.796,28.67,-0.064,0.086,0.796,179.38,13.12,28.67
13:28:52.162,26.77,29.27,28.94,-0.086,-0.064,0.796,28.67,-0.064,0.086,0.796,179.38,13.08,28.67
13:28:52.497,19.44,21.09,29.85,-0.086,-0.064,0.796,28.69,-0.064,0.086,0.796,179.47,13.06,28.69
13:28:52.832,19.42,20.99,29.83,-0.086,-0.064,0.796,28.68,-0.064,0.086,0.796,179.40,13.08,28.68
13:28:53.167,18.69,20.41,29.86,-0.086,-0.064,0.796,28.69,-0.064,0.086,0.796,179.47,13.06,28.69
13:28:53.502,20.89,22.86,29.84,-0.087,-0.064,0.797,28.68,-0.064,0.087,0.797,179.48,12.89,28.68
13:28:53.837,22.52,24.01,29.86,-0.087,-0.064,0.797,28.69,-0.064,0.087,0.797,179.47,12.92,28.69
13:28:54.172,19.14,20.74,29.85,-0.087,-0.064,0.797,28.69,-0.064,0.087,0.797,179.43,12.89,28.69
13:28:54.516,20.69,22.89,29.04,-0.087,-0.064,0.797,28.68,-0.064,0.087,0.797,179.42,12.96,28.68
13:28:54.853,19.42,21.30,29.67,-0.087,-0.064,0.797,28.68,-0.064,0.087,0.797,179.38,12.96,28.68
13:28:55.188,20.85,22.70,29.86,-0.087,-0.064,0.796,28.67,-0.064,0.087,0.796,179.36,13.04,28.67
13:28:55.526,18.07,20.66,29.62,-0.087,-0.064,0.796,28.68,-0.064,0.087,0.796,179.37,13.07,28.68
13:28:55.869,20.94,23.03,29.15,-0.088,-0.062,0.815,28.50,-0.062,0.088,0.815,-178.51,-1.92,28.50
13:28:56.204,19.81,22.35,29.86,-0.086,-0.064,0.796,28.66,-0.064,0.086,0.796,179.27,13.02,28.66
13:28:56.542,21.11,23.06,29.55,-0.086,-0.064,0.796,28.67,-0.064,0.086,0.796,179.33,12.89,28.67
13:28:56.877,24.26,25.62,29.86,-0.086,-0.064,0.796,28.67,-0.064,0.086,0.796,179.40,12.94,28.67
13:28:57.212,19.48,21.04,29.82,-0.086,-0.064,0.797,28.66,-0.064,0.086,0.797,179.39,12.61,28.66
13:28:57.572,21.64,24.85,27.84,-0.086,-0.064,0.796,28.66,-0.064,0.086,0.796,179.30,12.92,28.66
13:28:57.907,19.24,21.10,29.85,-0.086,-0.064,0.796,28.66,-0.064,0.086,0.796,179.29,12.93,28.66
13:28:58.242,20.08,22.36,29.85,-0.087,-0.064,0.796,28.66,-0.064,0.087,0.796,179.38,12.86,28.66
13:28:58.576,25.02,26.73,29.86,-0.088,-0.062,0.815,28.48,-0.062,0.088,0.815,-178.39,-1.91,28.48
13:28:58.912,19.18,21.91,29.85,-0.088,-0.062,0.815,28.48,-0.062,0.088,0.815,-178.41,-1.90,28.48
13:28:59.247,17.90,21.00,29.84,-0.086,-0.064,0.796,28.67,-0.064,0.086,0.796,179.20,12.96,28.67
13:28:59.582,19.57,21.51,29.83,-0.088,-0.062,0.815,28.51,-0.062,0.088,0.815,-178.56,-2.24,28.51
13:28:59.917,21.40,22.74,29.85,-0.088,-0.062,0.815,28.51,-0.062,0.088,0.815,-178.60,-2.30,28.51
13:29:00.253,18.20,20.05,29.74,-0.088,-0.062,0.815,28.51,-0.062,0.088,0.815,-178.60,-2.29,28.51
13:29:00.589,23.79,27.74,29.78,-0.087,-0.064,0.797,28.68,-0.064,0.087,0.797,179.17,12.72,28.68
13:29:00.924,20.23,22.63,29.83,-0.087,-0.064,0.797,28.70,-0.064,0.087,0.797,179.09,12.96,28.70
13:29:01.259,18.80,20.68,29.86,-0.087,-0.064,0.797,28.68,-0.064,0.087,0.797,179.17,12.88,28.68
13:29:01.594,19.59,20.96,29.84,-0.087,-0.064,0.797,28.68,-0.064,0.087,0.797,179.17,12.88,28.68
13:29:01.929,18.40,19.91,29.86,-0.088,-0.062,0.815,28.51,-0.062,0.088,0.815,-178.42,-2.28,28.51
13:29:02.264,20.77,22.46,29.86,-0.088,-0.062,0.815,28.51,-0.062,0.088,0.815,-178.43,-2.30,28.51
13:29:02.602,19.25,21.78,29.57,-0.088,-0.062,0.815,28.51,-0.062,0.088,0.815,-178.40,-2.32,28.51
13:29:02.941,34.84,36.92,29.52,-0.087,-0.064,0.797,28.67,-0.064,0.087,0.797,179.11,12.55,28.67
13:29:03.277,20.00,22.02,29.75,-0.088,-0.062,0.815,28.51,-0.062,0.088,0.815,-178.47,-2.37,28.51
13:29:03.612,19.85,21.64,29.86,-0.087,-0.064,0.797,28.68,-0.064,0.087,0.797,179.05,12.72,28.68
13:29:03.947,21.21,23.06,29.85,-0.087,-0.064,0.797,28.68,-0.064,0.087,0.797,179.04,12.73,28.68
13:29:04.287,25.53,28.17,29.43,-0.087,-0.064,0.797,28.69,-0.064,0.087,0.797,179.08,12.79,28.69
13:29:04.648,18.46,20.19,27.73,-0.087,-0.064,0.797,28.68,-0.064,0.087,0.797,179.06,12.85,28.68
13:29:04.982,21.43,23.16,29.86,-0.087,-0.064,0.797,28.69,-0.064,0.087,0.797,178.99,12.82,28.69
13:29:05.317,19.02,20.97,29.86,-0.087,-0.064,0.797,28.69,-0.064,0.087,0.797,178.96,12.80,28.69
13:29:05.653,18.62,20.34,29.83,-0.087,-0.064,0.797,28.70,-0.064,0.087,0.797,179.08,12.87,28.70
13:29:05.988,22.35,24.00,29.86,-0.088,-0.062,0.815,28.52,-0.062,0.088,0.815,-178.16,-2.18,28.52
13:29:06.325,20.36,22.90,29.64,-0.087,-0.064,0.798,28.70,-0.064,0.087,0.798,179.18,12.60,28.70
13:29:06.665,21.17,23.26,29.39,-0.088,-0.062,0.815,28.52,-0.062,0.088,0.815,-178.21,-2.29,28.52
13:29:07.003,20.43,22.58,29.63,-0.088,-0.062,0.815,28.52,-0.062,0.088,0.815,-178.16,-2.28,28.52
13:29:07.338,20.28,21.97,29.85,-0.088,-0.062,0.815,28.52,-0.062,0.088,0.815,-178.14,-2.22,28.52
13:29:07.673,20.66,22.85,29.80,-0.087,-0.064,0.797,28.69,-0.064,0.087,0.797,179.16,12.72,28.69
13:29:08.011,18.64,20.39,29.61,-0.087,-0.064,0.797,28.69,-0.064,0.087,0.797,179.13,12.89,28.69
13:29:08.346,20.98,23.16,29.85,-0.088,-0.062,0.816,28.52,-0.062,0.088,0.816,-178.30,-2.21,28.52
13:29:08.684,19.38,21.71,29.63,-0.088,-0.062,0.816,28.52,-0.062,0.088,0.816,-178.30,-2.20,28.52
13:29:09.023,22.51,24.09,29.48,-0.087,-0.064,0.797,28.72,-0.064,0.087,0.797,179.16,12.90,28.72
13:29:09.358,22.01,23.78,29.86,-0.087,-0.064,0.797,28.72,-0.064,0.087,0.797,179.14,12.98,28.72
13:29:09.693,19.79,21.70,29.85,-0.087,-0.064,0.797,28.72,-0.064,0.087,0.797,179.14,12.99,28.72
13:29:10.028,21.93,23.80,29.85,-0.087,-0.064,0.797,28.70,-0.064,0.087,0.797,179.20,12.86,28.70
13:29:10.365,18.28,21.00,29.66,-0.087,-0.064,0.797,28.71,-0.064,0.087,0.797,179.18,13.03,28.71
13:29:10.700,20.83,22.72,29.86,-0.087,-0.064,0.797,28.71,-0.064,0.087,0.797,179.17,12.99,28.71
13:29:11.040,20.09,21.55,29.43,-0.087,-0.064,0.797,28.71,-0.064,0.087,0.797,179.16,12.99,28.71
13:29:11.375,19.81,21.57,29.84,-0.087,-0.064,0.797,28.71,-0.064,0.087,0.797,179.30,12.82,28.71
13:29:11.710,21.08,23.02,29.85,-0.087,-0.064,0.797,28.71,-0.064,0.087,0.797,179.23,12.82,28.71
13:29:12.045,20.16,22.53,29.85,-0.087,-0.064,0.797,28.71,-0.064,0.087,0.797,179.26,12.78,28.71
13:29:12.380,19.89,21.54,29.85,-0.087,-0.064,0.797,28.71,-0.064,0.087,0.797,179.29,12.78,28.71
13:29:12.716,19.72,21.30,29.77,-0.087,-0.064,0.797,28.72,-0.064,0.087,0.797,179.18,12.97,28.72
13:29:13.054,19.79,21.65,29.59,-0.087,-0.064,0.797,28.73,-0.064,0.087,0.797,179.20,12.97,28.73
13:29:13.389,21.72,23.59,29.85,-0.086,-0.064,0.797,28.72,-0.064,0.086,0.797,179.18,13.00,28.72
13:29:13.723,20.22,22.18,29.87,-0.086,-0.064,0.796,28.72,-0.064,0.086,0.796,179.21,13.05,28.72
13:29:14.070,22.80,24.97,28.83,-0.088,-0.062,0.815,28.53,-0.062,0.088,0.815,-178.49,-2.01,28.53
13:29:14.406,20.09,22.60,29.77,-0.088,-0.062,0.815,28.53,-0.062,0.088,0.815,-178.50,-2.04,28.53
13:29:14.741,21.96,23.91,29.86,-0.088,-0.062,0.815,28.53,-0.062,0.088,0.815,-178.51,-2.03,28.53
13:29:15.083,22.95,24.65,29.28,-0.086,-0.064,0.797,28.70,-0.064,0.086,0.797,179.35,12.77,28.70
13:29:15.417,19.30,20.99,29.87,-0.086,-0.064,0.797,28.71,-0.064,0.086,0.797,179.22,12.87,28.71
13:29:15.752,20.98,22.65,29.85,-0.086,-0.064,0.796,28.72,-0.064,0.086,0.796,179.24,12.97,28.72
13:29:16.087,27.35,29.57,29.86,-0.086,-0.064,0.796,28.70,-0.064,0.086,0.796,179.27,12.89,28.70
13:29:16.423,18.67,20.33,29.79,-0.087,-0.064,0.797,28.70,-0.064,0.087,0.797,179.21,12.83,28.70
13:29:16.758,20.80,22.42,29.86,-0.087,-0.064,0.797,28.69,-0.064,0.087,0.797,179.26,12.86,28.69
13:29:17.093,19.74,21.50,29.86,-0.087,-0.064,0.797,28.70,-0.064,0.087,0.797,179.25,12.87,28.70
13:29:17.428,27.34,29.14,29.85,-0.087,-0.064,0.797,28.68,-0.064,0.087,0.797,179.18,12.66,28.68
13:29:17.763,21.39,23.25,29.84,-0.087,-0.064,0.797,28.68,-0.064,0.087,0.797,179.17,12.68,28.68
13:29:18.098,19.41,21.10,29.86,-0.086,-0.064,0.797,28.69,-0.064,0.086,0.797,179.17,12.87,28.69
13:29:18.433,26.51,28.19,29.85,-0.087,-0.064,0.797,28.66,-0.064,0.087,0.797,179.12,12.75,28.66
13:29:18.768,18.27,21.18,29.85,-0.086,-0.064,0.797,28.71,-0.064,0.086,0.797,178.96,13.20,28.71
13:29:19.103,20.92,22.82,29.82,-0.086,-0.064,0.797,28.71,-0.064,0.086,0.797,178.95,13.20,28.71
13:29:19.438,21.21,22.58,29.85,-0.086,-0.064,0.797,28.70,-0.064,0.086,0.797,178.98,13.21,28.70
13:29:19.773,19.65,21.50,29.85,-0.086,-0.064,0.797,28.68,-0.064,0.086,0.797,179.14,12.93,28.68
13:29:20.108,22.41,24.06,29.86,-0.086,-0.064,0.797,28.68,-0.064,0.086,0.797,179.12,12.94,28.68
13:29:20.443,22.07,24.24,29.85,-0.086,-0.064,0.797,28.68,-0.064,0.086,0.797,179.15,12.91,28.68
13:29:20.780,20.33,22.18,29.66,-0.087,-0.064,0.797,28.70,-0.064,0.087,0.797,179.30,12.68,28.70
13:29:21.115,20.46,22.03,29.85,-0.087,-0.064,0.796,28.70,-0.064,0.087,0.796,179.39,12.90,28.70
13:29:21.450,18.21,20.02,29.87,-0.087,-0.064,0.796,28.69,-0.064,0.087,0.796,179.35,12.93,28.69
13:29:21.785,19.50,21.46,29.86,-0.087,-0.064,0.797,28.70,-0.064,0.087,0.797,179.21,12.96,28.70
13:29:22.120,18.32,20.59,29.86,-0.086,-0.064,0.797,28.70,-0.064,0.086,0.797,179.12,12.96,28.70
13:29:22.455,19.08,20.64,29.85,-0.088,-0.062,0.815,28.52,-0.062,0.088,0.815,-178.58,-2.16,28.52
13:29:22.801,19.60,21.17,28.90,-0.086,-0.064,0.796,28.69,-0.064,0.086,0.796,179.19,13.06,28.69
13:29:23.136,19.42,21.22,29.83,-0.086,-0.064,0.796,28.69,-0.064,0.086,0.796,179.22,13.03,28.69
13:29:23.471,23.31,24.97,29.83,-0.086,-0.064,0.797,28.67,-0.064,0.086,0.797,179.13,12.93,28.67
13:29:23.806,23.52,26.32,29.84,-0.086,-0.064,0.797,28.66,-0.064,0.086,0.797,179.16,12.72,28.66
13:29:24.151,21.41,23.28,28.98,-0.086,-0.064,0.797,28.66,-0.064,0.086,0.797,179.17,12.73,28.66
13:29:24.486,27.13,29.04,29.85,-0.086,-0.064,0.797,28.65,-0.064,0.086,0.797,179.18,12.77,28.65
13:29:24.822,19.09,20.95,29.84,-0.086,-0.064,0.796,28.67,-0.064,0.086,0.796,179.27,13.03,28.67
13:29:25.160,22.46,23.89,29.58,-0.086,-0.064,0.796,28.67,-0.064,0.086,0.796,179.25,13.03,28.67
13:29:25.495,17.83,19.71,29.86,-0.086,-0.064,0.796,28.67,-0.064,0.086,0.796,179.26,13.03,28.67
13:29:25.830,21.91,23.57,29.85,-0.086,-0.064,0.796,28.66,-0.064,0.086,0.796,179.16,13.07,28.66
13:29:26.165,20.16,22.91,29.85,-0.086,-0.064,0.796,28.66,-0.064,0.086,0.796,179.16,13.06,28.66
13:29:26.499,19.97,21.79,29.86,-0.086,-0.064,0.796,28.66,-0.064,0.086,0.796,179.23,12.93,28.66
13:29:26.843,24.58,26.19,29.11,-0.086,-0.064,0.796,28.66,-0.064,0.086,0.796,179.24,12.87,28.66
13:29:27.178,19.50,21.17,29.86,-0.086,-0.064,0.797,28.66,-0.064,0.086,0.797,179.20,12.84,28.66
13:29:27.513,21.37,23.03,29.86,-0.086,-0.064,0.796,28.67,-0.064,0.086,0.796,179.23,12.90,28.67
13:29:27.848,19.49,22.05,29.86,-0.086,-0.064,0.797,28.67,-0.064,0.086,0.797,179.24,12.74,28.67
13:29:28.188,28.83,30.49,29.39,-0.086,-0.064,0.796,28.68,-0.064,0.086,0.796,179.30,12.77,28.68
13:29:28.525,20.60,22.82,29.64,-0.086,-0.064,0.796,28.68,-0.064,0.086,0.796,179.30,12.77,28.68
13:29:28.860,19.65,21.40,29.86,-0.086,-0.064,0.796,28.68,-0.064,0.086,0.796,179.31,12.76,28.68
13:29:29.195,20.15,23.11,29.85,-0.086,-0.064,0.796,28.68,-0.064,0.086,0.796,179.34,12.75,28.68
13:29:29.530,19.47,21.02,29.86,-0.088,-0.062,0.815,28.51,-0.062,0.088,0.815,-178.65,-1.99,28.51
13:29:29.865,21.15,22.87,29.85,-0.086,-0.064,0.797,28.66,-0.064,0.086,0.797,179.23,12.77,28.66
13:29:30.200,21.68,23.24,29.85,-0.086,-0.064,0.797,28.67,-0.064,0.086,0.797,179.37,12.81,28.67
13:29:30.535,19.59,21.56,29.85,-0.086,-0.064,0.797,28.67,-0.064,0.086,0.797,179.27,12.81,28.67
13:29:30.870,20.43,22.36,29.85,-0.087,-0.064,0.797,28.68,-0.064,0.087,0.797,179.41,12.95,28.68
13:29:31.206,19.27,21.47,29.82,-0.087,-0.064,0.797,28.67,-0.064,0.087,0.797,179.37,12.97,28.67
13:29:31.543,21.66,23.40,29.60,-0.087,-0.064,0.797,28.68,-0.064,0.087,0.797,179.36,12.77,28.68
13:29:31.881,22.77,24.33,29.65,-0.087,-0.064,0.797,28.67,-0.064,0.087,0.797,179.34,12.79,28.67
13:29:32.216,18.37,20.49,29.86,-0.087,-0.064,0.797,28.68,-0.064,0.087,0.797,179.29,12.68,28.68
13:29:32.551,25.43,27.36,29.85,-0.087,-0.064,0.798,28.68,-0.064,0.087,0.798,179.18,12.70,28.68
13:29:32.886,25.68,27.54,29.84,-0.087,-0.064,0.798,28.68,-0.064,0.087,0.798,179.17,12.68,28.68
13:29:33.224,19.44,21.33,29.55,-0.088,-0.062,0.815,28.49,-0.062,0.088,0.815,-178.24,-2.16,28.49
13:29:33.559,22.84,24.16,29.85,-0.087,-0.064,0.797,28.67,-0.064,0.087,0.797,179.16,12.83,28.67
13:29:33.894,18.07,19.65,29.86,-0.087,-0.064,0.797,28.68,-0.064,0.087,0.797,179.21,12.80,28.68
13:29:34.229,22.41,24.41,29.85,-0.087,-0.064,0.797,28.69,-0.064,0.087,0.797,179.33,13.00,28.69
13:29:34.564,20.05,21.64,29.86,-0.087,-0.064,0.797,28.69,-0.064,0.087,0.797,179.30,13.03,28.69
13:29:34.901,19.98,21.67,29.63,-0.087,-0.064,0.797,28.68,-0.064,0.087,0.797,179.27,13.12,28.68
13:29:35.237,19.83,21.38,29.85,-0.087,-0.064,0.797,28.69,-0.064,0.087,0.797,179.24,13.07,28.69
13:29:35.574,21.68,23.47,29.61,-0.087,-0.064,0.796,28.67,-0.064,0.087,0.796,179.24,12.97,28.67
13:29:35.913,20.89,22.74,29.56,-0.087,-0.064,0.796,28.67,-0.064,0.087,0.796,179.21,13.03,28.67
13:29:36.247,19.34,21.65,29.86,-0.087,-0.064,0.797,28.66,-0.064,0.087,0.797,179.30,12.83,28.66
13:29:36.583,21.44,23.40,29.84,-0.086,-0.064,0.796,28.66,-0.064,0.086,0.796,179.18,13.16,28.66
13:29:36.918,19.49,21.12,29.81,-0.088,-0.062,0.815,28.49,-0.062,0.088,0.815,-178.54,-1.88,28.49
13:29:37.253,18.68,20.39,29.86,-0.086,-0.064,0.796,28.68,-0.064,0.086,0.796,179.31,13.13,28.68
13:29:37.588,20.30,22.19,29.84,-0.088,-0.062,0.815,28.48,-0.062,0.088,0.815,-178.40,-1.95,28.48
13:29:37.923,22.49,23.86,29.86,-0.087,-0.064,0.798,28.63,-0.064,0.087,0.798,179.22,12.47,28.63
13:29:38.258,17.91,19.48,29.86,-0.087,-0.064,0.798,28.63,-0.064,0.087,0.798,179.21,12.49,28.63
13:29:38.593,20.24,22.17,29.85,-0.087,-0.064,0.797,28.62,-0.064,0.087,0.797,179.14,12.75,28.62
13:29:38.928,20.07,21.81,29.85,-0.086,-0.064,0.797,28.62,-0.064,0.086,0.797,179.14,12.77,28.62
13:29:39.263,20.18,22.00,29.84,-0.086,-0.064,0.797,28.65,-0.064,0.086,0.797,179.24,13.12,28.65
13:29:39.598,21.79,25.13,29.85,-0.086,-0.064,0.797,28.66,-0.064,0.086,0.797,179.24,13.12,28.66
13:29:39.933,20.04,21.51,29.85,-0.086,-0.064,0.796,28.62,-0.064,0.086,0.796,179.46,12.78,28.62
13:29:40.268,21.45,23.34,29.85,-0.087,-0.064,0.797,28.62,-0.064,0.087,0.797,179.27,12.77,28.62
13:29:40.603,20.96,22.52,29.86,-0.087,-0.064,0.797,28.64,-0.064,0.087,0.797,179.25,12.79,28.64
13:29:40.938,18.82,20.67,29.85,-0.087,-0.064,0.797,28.64,-0.064,0.087,0.797,179.24,12.77,28.64
13:29:41.273,22.66,24.68,29.83,-0.087,-0.064,0.797,28.63,-0.064,0.087,0.797,179.24,12.81,28.63
13:29:41.608,18.51,21.12,29.84,-0.086,-0.064,0.796,28.63,-0.064,0.086,0.796,179.37,13.04,28.63
13:29:41.943,20.01,21.85,29.85,-0.086,-0.064,0.796,28.63,-0.064,0.086,0.796,179.38,13.05,28.63
13:29:42.278,20.57,22.33,29.85,-0.086,-0.064,0.796,28.63,-0.064,0.086,0.796,179.38,13.05,28.63
13:29:42.613,20.06,21.85,29.85,-0.087,-0.064,0.797,28.62,-0.064,0.087,0.797,179.30,12.99,28.62
13:29:42.948,19.98,21.70,29.86,-0.087,-0.064,0.797,28.62,-0.064,0.087,0.797,179.30,13.00,28.62
13:29:43.288,30.65,32.89,29.37,-0.087,-0.064,0.797,28.60,-0.064,0.087,0.797,179.38,12.78,28.60
13:29:43.624,20.78,22.63,29.85,-0.087,-0.064,0.797,28.61,-0.064,0.087,0.797,179.36,12.88,28.61
13:29:43.961,19.67,21.36,29.61,-0.086,-0.064,0.797,28.64,-0.064,0.086,0.797,179.39,12.97,28.64
13:29:44.296,18.90,20.43,29.86,-0.086,-0.064,0.797,28.64,-0.064,0.086,0.797,179.36,12.98,28.64
13:29:44.631,23.16,24.82,29.86,-0.087,-0.064,0.797,28.63,-0.064,0.087,0.797,179.40,12.98,28.63
13:29:44.966,29.92,32.07,29.82,-0.086,-0.064,0.797,28.63,-0.064,0.086,0.797,179.37,13.00,28.63
13:29:45.306,20.28,22.26,29.45,-0.086,-0.064,0.796,28.63,-0.064,0.086,0.796,179.48,12.98,28.63
13:29:45.641,21.30,22.63,29.86,-0.087,-0.064,0.796,28.65,-0.064,0.087,0.796,179.55,12.94,28.65
13:29:45.976,18.09,19.63,29.86,-0.087,-0.064,0.796,28.65,-0.064,0.087,0.796,179.54,12.94,28.65
13:29:46.315,25.58,27.31,29.50,-0.087,-0.064,0.796,28.64,-0.064,0.087,0.796,179.42,12.90,28.64
13:29:46.650,19.07,22.12,29.85,-0.087,-0.064,0.796,28.63,-0.064,0.087,0.796,179.44,12.90,28.63
13:29:46.988,20.58,22.50,29.53,-0.087,-0.064,0.796,28.63,-0.064,0.087,0.796,179.52,12.81,28.63
13:29:47.323,18.69,20.83,29.86,-0.087,-0.063,0.796,28.61,-0.063,0.087,0.796,179.66,12.58,28.61
13:29:47.658,19.54,21.37,29.83,-0.087,-0.063,0.796,28.60,-0.063,0.087,0.796,179.67,12.67,28.60
13:29:47.996,20.12,23.11,29.66,-0.087,-0.063,0.796,28.60,-0.063,0.087,0.796,179.68,12.67,28.60
13:29:48.331,20.56,22.71,29.85,-0.087,-0.063,0.796,28.60,-0.063,0.087,0.796,179.61,12.74,28.60
13:29:48.666,19.13,20.86,29.86,-0.087,-0.064,0.797,28.64,-0.064,0.087,0.797,179.35,12.96,28.64
13:29:49.000,20.73,22.32,29.86,-0.087,-0.064,0.797,28.63,-0.064,0.087,0.797,179.35,12.98,28.63
13:29:49.338,20.79,22.63,29.59,-0.087,-0.064,0.797,28.64,-0.064,0.087,0.797,179.34,12.95,28.64
13:29:49.676,20.46,22.13,29.62,-0.087,-0.064,0.797,28.63,-0.064,0.087,0.797,179.38,12.93,28.63
13:29:50.017,18.20,20.20,29.33,-0.087,-0.064,0.796,28.59,-0.064,0.087,0.796,179.61,12.52,28.59
13:29:50.352,23.32,25.15,29.82,-0.087,-0.064,0.797,28.63,-0.064,0.087,0.797,179.27,13.06,28.63
13:29:50.687,19.87,22.05,29.85,-0.087,-0.064,0.797,28.63,-0.064,0.087,0.797,179.33,13.01,28.63
13:29:51.024,21.18,23.06,29.68,-0.087,-0.064,0.797,28.65,-0.064,0.087,0.797,179.27,13.08,28.65
13:29:51.359,21.01,22.39,29.84,-0.087,-0.064,0.797,28.65,-0.064,0.087,0.797,179.26,13.07,28.65
13:29:51.694,18.13,19.71,29.86,-0.087,-0.064,0.797,28.64,-0.064,0.087,0.797,179.30,12.94,28.64
13:29:52.029,21.55,23.36,29.86,-0.087,-0.064,0.797,28.64,-0.064,0.087,0.797,179.30,12.94,28.64
13:29:52.365,20.09,22.47,29.74,-0.087,-0.064,0.797,28.64,-0.064,0.087,0.797,179.31,12.93,28.64
13:29:52.700,18.81,20.62,29.85,-0.087,-0.064,0.797,28.64,-0.064,0.087,0.797,179.31,12.93,28.64
13:29:53.035,23.97,27.27,29.85,-0.087,-0.064,0.797,28.63,-0.064,0.087,0.797,179.31,12.95,28.63
13:29:53.372,18.93,21.02,29.65,-0.087,-0.064,0.797,28.61,-0.064,0.087,0.797,179.37,12.89,28.61
13:29:53.707,20.46,22.15,29.85,-0.087,-0.064,0.797,28.63,-0.064,0.087,0.797,179.31,12.71,28.63
13:29:54.042,21.53,23.43,29.86,-0.087,-0.064,0.797,28.63,-0.064,0.087,0.797,179.31,12.73,28.63
13:29:54.377,20.24,22.10,29.85,-0.087,-0.064,0.797,28.63,-0.064,0.087,0.797,179.33,12.83,28.63
13:29:54.712,20.60,22.43,29.83,-0.087,-0.064,0.797,28.61,-0.064,0.087,0.797,179.30,12.98,28.61
13:29:55.047,18.89,21.10,29.85,-0.087,-0.064,0.797,28.61,-0.064,0.087,0.797,179.30,12.98,28.61
13:29:55.382,19.72,21.41,29.87,-0.087,-0.064,0.797,28.62,-0.064,0.087,0.797,179.28,13.00,28.62
13:29:55.717,20.13,22.05,29.85,-0.087,-0.064,0.797,28.62,-0.064,0.087,0.797,179.25,13.00,28.62
13:29:56.055,18.75,20.68,29.64,-0.087,-0.064,0.797,28.62,-0.064,0.087,0.797,179.25,12.88,28.62
13:29:56.390,21.47,23.20,29.86,-0.087,-0.064,0.797,28.63,-0.064,0.087,0.797,179.24,12.86,28.63
13:29:56.725,21.51,24.03,29.85,-0.087,-0.064,0.797,28.63,-0.064,0.087,0.797,179.26,12.84,28.63
13:29:57.059,18.76,20.70,29.87,-0.087,-0.064,0.797,28.62,-0.064,0.087,0.797,179.30,12.92,28.62
13:29:57.395,20.08,22.60,29.84,-0.087,-0.064,0.797,28.61,-0.064,0.087,0.797,179.37,12.86,28.61
13:29:57.730,17.89,19.42,29.85,-0.087,-0.064,0.796,28.61,-0.064,0.087,0.796,179.49,13.03,28.61
13:29:58.065,19.86,21.49,29.80,-0.087,-0.064,0.796,28.61,-0.064,0.087,0.796,179.44,13.06,28.61
13:29:58.400,23.31,24.89,29.86,-0.087,-0.064,0.797,28.59,-0.064,0.087,0.797,179.28,13.01,28.59
13:29:58.735,20.73,22.53,29.86,-0.087,-0.064,0.797,28.59,-0.064,0.087,0.797,179.30,12.94,28.59
13:29:59.070,24.70,26.63,29.86,-0.087,-0.064,0.797,28.59,-0.064,0.087,0.797,179.27,12.93,28.59
13:29:59.411,18.69,21.08,29.29,-0.087,-0.064,0.797,28.56,-0.064,0.087,0.797,179.57,12.46,28.56
13:29:59.746,21.17,23.22,29.84,-0.086,-0.064,0.796,28.58,-0.064,0.086,0.796,179.38,13.00,28.58
13:30:00.081,22.78,24.46,29.86,-0.086,-0.064,0.796,28.59,-0.064,0.086,0.796,179.41,13.00,28.59
13:30:00.416,23.80,25.47,29.86,-0.086,-0.064,0.796,28.59,-0.064,0.086,0.796,179.41,13.00,28.59
13:30:00.755,19.60,21.17,29.54,-0.087,-0.064,0.796,28.55,-0.064,0.087,0.796,179.52,12.59,28.55
13:30:01.090,18.41,20.20,29.86,-0.087,-0.064,0.796,28.56,-0.064,0.087,0.796,179.54,12.58,28.56
13:30:01.429,24.67,27.00,29.47,-0.086,-0.064,0.797,28.61,-0.064,0.086,0.797,179.23,13.18,28.61
13:30:01.768,18.29,19.99,29.46,-0.086,-0.064,0.796,28.61,-0.064,0.086,0.796,179.31,12.96,28.61
13:30:02.103,19.71,21.42,29.85,-0.086,-0.064,0.797,28.61,-0.064,0.086,0.797,179.31,12.95,28.61
13:30:02.438,21.28,23.12,29.86,-0.086,-0.064,0.796,28.60,-0.064,0.086,0.796,179.33,13.04,28.60
13:30:02.790,20.66,22.58,28.40,-0.086,-0.064,0.796,28.60,-0.064,0.086,0.796,179.35,13.02,28.60
13:30:03.128,18.61,20.10,29.60,-0.086,-0.064,0.797,28.64,-0.064,0.086,0.797,179.24,13.24,28.64
13:30:03.463,20.04,21.72,29.87,-0.086,-0.064,0.797,28.64,-0.064,0.086,0.797,179.24,13.23,28.64
13:30:03.798,20.83,22.46,29.86,-0.087,-0.064,0.796,28.62,-0.064,0.087,0.796,179.39,12.98,28.62
13:30:04.135,19.41,21.47,29.70,-0.087,-0.064,0.797,28.62,-0.064,0.087,0.797,179.39,13.01,28.62
13:30:04.469,20.88,22.60,29.85,-0.087,-0.064,0.797,28.61,-0.064,0.087,0.797,179.35,13.03,28.61
13:30:04.804,19.90,22.51,29.86,-0.087,-0.064,0.797,28.60,-0.064,0.087,0.797,179.31,13.05,28.60
13:30:05.139,18.60,20.49,29.86,-0.087,-0.064,0.797,28.60,-0.064,0.087,0.797,179.33,13.04,28.60
13:30:05.483,28.28,30.97,29.06,-0.087,-0.064,0.796,28.56,-0.064,0.087,0.796,179.56,12.69,28.56
13:30:05.819,20.92,22.74,29.84,-0.087,-0.064,0.797,28.59,-0.064,0.087,0.797,179.33,12.97,28.59
13:30:06.154,20.59,22.49,29.85,-0.087,-0.064,0.797,28.59,-0.064,0.087,0.797,179.32,12.88,28.59
13:30:06.489,23.47,25.11,29.86,-0.087,-0.064,0.797,28.59,-0.064,0.087,0.797,179.35,12.85,28.59
13:30:06.824,20.09,21.79,29.85,-0.087,-0.064,0.797,28.60,-0.064,0.087,0.797,179.35,13.00,28.60
13:30:07.158,21.36,22.99,29.86,-0.087,-0.064,0.796,28.60,-0.064,0.087,0.796,179.35,13.02,28.60
13:30:07.498,19.87,21.75,29.45,-0.087,-0.064,0.796,28.60,-0.064,0.087,0.796,179.37,13.02,28.60
13:30:07.839,21.22,22.65,29.33,-0.087,-0.064,0.797,28.59,-0.064,0.087,0.797,179.39,12.92,28.59
13:30:08.174,19.03,20.73,29.86,-0.087,-0.064,0.797,28.59,-0.064,0.087,0.797,179.39,12.92,28.59
13:30:08.519,28.58,31.00,28.96,-0.087,-0.064,0.797,28.59,-0.064,0.087,0.797,179.36,12.93,28.59
13:30:08.854,20.15,22.06,29.86,-0.087,-0.064,0.797,28.59,-0.064,0.087,0.797,179.36,12.91,28.59
13:30:09.189,19.92,22.80,29.84,-0.087,-0.064,0.797,28.61,-0.064,0.087,0.797,179.34,12.96,28.61
13:30:09.524,18.56,21.80,29.86,-0.087,-0.064,0.797,28.61,-0.064,0.087,0.797,179.34,12.95,28.61
13:30:09.862,22.30,24.70,29.62,-0.087,-0.064,0.796,28.61,-0.064,0.087,0.796,179.39,13.07,28.61
13:30:10.197,23.55,25.28,29.86,-0.086,-0.064,0.796,28.60,-0.064,0.086,0.796,179.37,13.00,28.60
13:30:10.532,19.60,21.18,29.85,-0.086,-0.064,0.796,28.60,-0.064,0.086,0.796,179.38,12.99,28.60
13:30:10.866,20.58,22.49,29.87,-0.087,-0.064,0.797,28.57,-0.064,0.087,0.797,179.61,12.52,28.57
13:30:11.201,19.92,22.46,29.86,-0.086,-0.064,0.797,28.61,-0.064,0.086,0.797,179.41,12.92,28.61
13:30:11.538,18.88,20.80,29.70,-0.086,-0.064,0.797,28.59,-0.064,0.086,0.797,179.35,12.99,28.59
13:30:11.873,21.11,22.45,29.84,-0.086,-0.064,0.796,28.59,-0.064,0.086,0.796,179.32,13.09,28.59
13:30:12.208,18.53,20.09,29.86,-0.086,-0.064,0.796,28.59,-0.064,0.086,0.796,179.36,13.08,28.59
13:30:12.546,23.88,25.64,29.54,-0.086,-0.064,0.796,28.59,-0.064,0.086,0.796,179.35,13.08,28.59
13:30:12.882,20.21,22.78,29.84,-0.087,-0.064,0.796,28.56,-0.064,0.087,0.796,179.67,12.57,28.56
13:30:13.220,22.14,24.03,29.60,-0.086,-0.064,0.796,28.59,-0.064,0.086,0.796,179.38,12.99,28.59
13:30:13.562,26.41,28.67,29.16,-0.087,-0.064,0.797,28.60,-0.064,0.087,0.797,179.37,12.97,28.60
13:30:13.901,20.14,22.10,29.49,-0.087,-0.064,0.797,28.58,-0.064,0.087,0.797,179.34,12.90,28.58
13:30:14.236,21.09,22.42,29.86,-0.087,-0.064,0.797,28.58,-0.064,0.087,0.797,179.39,12.81,28.58
13:30:14.571,19.57,21.16,29.86,-0.087,-0.064,0.797,28.58,-0.064,0.087,0.797,179.36,12.91,28.58
13:30:14.906,18.97,20.90,29.85,-0.087,-0.064,0.797,28.57,-0.064,0.087,0.797,179.53,12.55,28.57
13:30:15.244,18.58,21.69,29.63,-0.087,-0.064,0.797,28.61,-0.064,0.087,0.797,179.28,12.98,28.61
13:30:15.579,20.38,22.51,29.85,-0.087,-0.064,0.797,28.61,-0.064,0.087,0.797,179.35,13.02,28.61
13:30:15.914,21.94,23.33,29.87,-0.087,-0.064,0.796,28.61,-0.064,0.087,0.796,179.40,13.02,28.61
13:30:16.249,18.52,20.28,29.86,-0.087,-0.064,0.797,28.60,-0.064,0.087,0.797,179.29,12.88,28.60
13:30:16.583,19.83,21.77,29.86,-0.087,-0.064,0.797,28.59,-0.064,0.087,0.797,179.24,12.88,28.59
13:30:16.918,21.61,23.18,29.86,-0.087,-0.064,0.797,28.60,-0.064,0.087,0.797,179.27,12.94,28.60
13:30:17.253,20.25,21.92,29.86,-0.087,-0.064,0.797,28.60,-0.064,0.087,0.797,179.27,12.94,28.60
13:30:17.590,19.74,22.60,29.69,-0.087,-0.064,0.797,28.60,-0.064,0.087,0.797,179.30,12.77,28.60
13:30:17.925,18.51,20.22,29.86,-0.087,-0.064,0.797,28.58,-0.064,0.087,0.797,179.67,12.30,28.58
13:30:18.260,20.53,22.53,29.86,-0.087,-0.064,0.797,28.58,-0.064,0.087,0.797,179.68,12.30,28.58
13:30:18.600,24.34,27.24,29.40,-0.087,-0.064,0.797,28.60,-0.064,0.087,0.797,179.41,12.76,28.60
13:30:18.935,19.28,20.91,29.84,-0.087,-0.064,0.797,28.59,-0.064,0.087,0.797,179.50,12.64,28.59
13:30:19.270,19.87,23.12,29.86,-0.087,-0.064,0.797,28.58,-0.064,0.087,0.797,179.52,12.70,28.58
13:30:19.605,19.39,21.22,29.84,-0.087,-0.064,0.797,28.61,-0.064,0.087,0.797,179.45,12.90,28.61
13:30:19.940,19.69,21.38,29.84,-0.087,-0.064,0.797,28.60,-0.064,0.087,0.797,179.37,12.98,28.60
13:30:20.275,24.18,25.74,29.86,-0.087,-0.064,0.797,28.61,-0.064,0.087,0.797,179.36,12.96,28.61
13:30:20.610,18.99,20.82,29.84,-0.087,-0.064,0.796,28.60,-0.064,0.087,0.796,179.38,13.02,28.60
13:30:20.946,23.93,26.86,29.83,-0.087,-0.064,0.796,28.60,-0.064,0.087,0.796,179.39,13.04,28.60
13:30:21.284,18.09,19.58,29.57,-0.086,-0.064,0.797,28.60,-0.064,0.086,0.797,179.39,12.98,28.60
13:30:21.618,20.80,22.55,29.87,-0.087,-0.064,0.797,28.60,-0.064,0.087,0.797,179.35,12.83,28.60
13:30:21.953,22.31,23.94,29.86,-0.087,-0.064,0.797,28.60,-0.064,0.087,0.797,179.33,12.89,28.60
13:30:22.289,18.31,20.25,29.84,-0.086,-0.064,0.797,28.60,-0.064,0.086,0.797,179.34,13.00,28.60
13:30:22.625,26.10,27.76,29.76,-0.086,-0.064,0.797,28.60,-0.064,0.086,0.797,179.35,13.00,28.60
13:30:22.960,20.48,23.17,29.85,-0.086,-0.064,0.796,28.61,-0.064,0.086,0.796,179.36,13.02,28.61
13:30:23.294,18.62,20.89,29.86,-0.086,-0.064,0.796,28.60,-0.064,0.086,0.796,179.42,13.00,28.60
13:30:23.630,19.84,23.16,29.83,-0.086,-0.064,0.796,28.58,-0.064,0.086,0.796,179.43,12.97,28.58
13:30:23.967,17.88,19.44,29.62,-0.086,-0.064,0.796,28.58,-0.064,0.086,0.796,179.39,12.97,28.58
13:30:24.302,21.14,23.09,29.85,-0.086,-0.064,0.796,28.58,-0.064,0.086,0.796,179.40,13.06,28.58
13:30:24.637,24.76,26.53,29.84,-0.086,-0.064,0.796,28.60,-0.064,0.086,0.796,179.55,12.97,28.60
13:30:24.997,26.81,29.42,27.79,-0.086,-0.064,0.796,28.60,-0.064,0.086,0.796,179.51,13.02,28.60
13:30:25.370,32.30,35.39,26.85,-0.086,-0.064,0.796,28.59,-0.064,0.086,0.796,179.51,12.91,28.59
13:30:25.721,30.85,33.27,28.43,-0.086,-0.064,0.796,28.59,-0.064,0.086,0.796,179.51,12.91,28.59
13:30:26.069,28.39,30.29,28.76,-0.087,-0.064,0.796,28.57,-0.064,0.087,0.796,179.65,12.77,28.57
13:30:26.434,23.19,24.79,27.39,-0.087,-0.064,0.796,28.57,-0.064,0.087,0.796,179.65,12.77,28.57
13:30:26.776,27.79,29.84,29.27,-0.087,-0.064,0.796,28.56,-0.064,0.087,0.796,179.65,12.77,28.56
13:30:27.153,24.27,25.65,26.48,-0.087,-0.063,0.796,28.55,-0.063,0.087,0.796,179.66,12.62,28.55
13:30:27.523,31.49,33.54,27.06,-0.087,-0.064,0.796,28.58,-0.064,0.087,0.796,179.70,12.68,28.58
13:30:27.888,25.42,27.31,27.41,-0.087,-0.063,0.796,28.57,-0.063,0.087,0.796,179.78,12.55,28.57
13:30:28.247,29.43,31.37,27.84,-0.087,-0.064,0.796,28.56,-0.064,0.087,0.796,179.44,12.96,28.56
13:30:28.602,30.61,33.52,28.19,-0.087,-0.064,0.796,28.56,-0.064,0.087,0.796,179.48,12.85,28.56
13:30:28.944,23.45,25.32,29.23,-0.087,-0.064,0.796,28.56,-0.064,0.087,0.796,179.67,12.58,28.56
13:30:29.279,24.93,26.49,29.84,-0.087,-0.064,0.797,28.58,-0.064,0.087,0.797,179.36,12.92,28.58
13:30:29.614,18.70,20.59,29.82,-0.087,-0.064,0.797,28.57,-0.064,0.087,0.797,179.41,12.86,28.57
13:30:29.949,20.92,22.25,29.85,-0.087,-0.064,0.797,28.55,-0.064,0.087,0.797,179.53,12.54,28.55
13:30:30.284,18.76,20.25,29.85,-0.087,-0.064,0.797,28.57,-0.064,0.087,0.797,179.35,12.88,28.57
13:30:30.622,22.48,24.40,29.66,-0.087,-0.064,0.797,28.58,-0.064,0.087,0.797,179.36,12.84,28.58
13:30:30.961,30.24,33.17,29.43,-0.087,-0.064,0.797,28.58,-0.064,0.087,0.797,179.36,12.84,28.58
13:30:31.302,22.95,24.67,29.39,-0.087,-0.064,0.797,28.58,-0.064,0.087,0.797,179.35,12.88,28.58
13:30:31.637,19.59,22.08,29.85,-0.087,-0.064,0.797,28.58,-0.064,0.087,0.797,179.36,12.91,28.58
13:30:31.972,20.25,21.86,29.85,-0.087,-0.064,0.797,28.56,-0.064,0.087,0.797,179.37,12.94,28.56
13:30:32.309,20.88,22.44,29.64,-0.087,-0.064,0.797,28.56,-0.064,0.087,0.797,179.37,12.94,28.56
13:30:32.644,18.96,20.72,29.86,-0.087,-0.064,0.797,28.56,-0.064,0.087,0.797,179.38,12.99,28.56
13:30:32.979,23.27,25.13,29.87,-0.087,-0.064,0.797,28.56,-0.064,0.087,0.797,179.37,12.98,28.56
13:30:33.314,22.80,24.50,29.84,-0.087,-0.064,0.796,28.55,-0.064,0.087,0.796,179.37,12.97,28.55
13:30:33.649,19.81,21.61,29.86,-0.087,-0.064,0.797,28.54,-0.064,0.087,0.797,179.40,12.92,28.54
13:30:33.984,20.91,22.77,29.84,-0.087,-0.064,0.797,28.54,-0.064,0.087,0.797,179.40,12.92,28.54
13:30:34.319,21.91,24.31,29.86,-0.087,-0.064,0.797,28.52,-0.064,0.087,0.797,179.45,12.84,28.52
13:30:34.654,19.85,21.58,29.85,-0.087,-0.064,0.797,28.53,-0.064,0.087,0.797,179.39,12.91,28.53
13:30:34.990,24.10,25.89,29.75,-0.087,-0.064,0.797,28.54,-0.064,0.087,0.797,179.39,12.88,28.54
13:30:35.345,22.17,24.29,28.17,-0.087,-0.064,0.797,28.54,-0.064,0.087,0.797,179.39,12.88,28.54
13:30:35.681,18.35,21.48,29.77,-0.087,-0.064,0.797,28.55,-0.064,0.087,0.797,179.32,13.00,28.55
13:30:36.016,22.14,24.04,29.84,-0.087,-0.064,0.796,28.54,-0.064,0.087,0.796,179.34,12.99,28.54
13:30:36.351,19.95,21.29,29.86,-0.087,-0.064,0.796,28.54,-0.064,0.087,0.796,179.37,12.95,28.54
13:30:36.686,18.59,20.57,29.86,-0.087,-0.064,0.796,28.51,-0.064,0.087,0.796,179.54,12.83,28.51
13:30:37.021,26.99,28.65,29.80,-0.087,-0.064,0.796,28.51,-0.064,0.087,0.796,179.46,12.82,28.51
13:30:37.360,19.38,21.81,29.52,-0.087,-0.064,0.796,28.51,-0.064,0.087,0.796,179.46,12.81,28.51
13:30:37.695,17.74,19.71,29.86,-0.087,-0.064,0.796,28.51,-0.064,0.087,0.796,179.46,12.82,28.51
13:30:38.033,23.17,24.52,29.62,-0.087,-0.064,0.796,28.50,-0.064,0.087,0.796,179.54,12.63,28.50
13:30:38.368,19.25,20.85,29.85,-0.087,-0.064,0.796,28.52,-0.064,0.087,0.796,179.38,12.91,28.52
13:30:38.703,20.70,22.35,29.84,-0.086,-0.064,0.796,28.52,-0.064,0.086,0.796,179.36,12.90,28.52
13:30:39.040,19.17,21.84,29.65,-0.087,-0.064,0.796,28.51,-0.064,0.087,0.796,179.61,12.75,28.51
13:30:39.381,28.01,30.03,29.30,-0.087,-0.064,0.796,28.51,-0.064,0.087,0.796,179.67,12.65,28.51
13:30:39.737,21.03,22.83,28.10,-0.087,-0.064,0.796,28.52,-0.064,0.087,0.796,179.57,12.68,28.52
13:30:40.072,25.47,27.03,29.85,-0.087,-0.064,0.796,28.52,-0.064,0.087,0.796,179.58,12.67,28.52
13:30:40.408,19.36,21.15,29.81,-0.087,-0.064,0.796,28.51,-0.064,0.087,0.796,179.57,12.61,28.51
13:30:40.743,23.99,25.90,29.85,-0.087,-0.064,0.796,28.50,-0.064,0.087,0.796,179.65,12.53,28.50
13:30:41.078,19.86,22.15,29.84,-0.087,-0.064,0.796,28.51,-0.064,0.087,0.796,179.52,12.73,28.51
13:30:41.427,22.67,24.58,28.64,-0.087,-0.064,0.796,28.53,-0.064,0.087,0.796,179.46,12.90,28.53
13:30:41.762,17.75,19.30,29.86,-0.087,-0.064,0.796,28.53,-0.064,0.087,0.796,179.39,12.90,28.53
13:30:42.097,19.93,21.65,29.86,-0.087,-0.064,0.796,28.53,-0.064,0.087,0.796,179.39,12.90,28.53
13:30:42.432,21.08,22.68,29.86,-0.087,-0.064,0.796,28.53,-0.064,0.087,0.796,179.40,12.89,28.53
13:30:42.766,21.04,23.03,29.86,-0.087,-0.064,0.796,28.52,-0.064,0.087,0.796,179.54,12.82,28.52
13:30:43.104,22.13,23.95,29.64,-0.087,-0.064,0.796,28.51,-0.064,0.087,0.796,179.55,12.78,28.51
13:30:43.439,30.32,33.15,29.84,-0.087,-0.064,0.796,28.54,-0.064,0.087,0.796,179.30,13.10,28.54
13:30:43.785,26.51,28.65,28.93,-0.087,-0.064,0.796,28.50,-0.064,0.087,0.796,179.68,12.45,28.50
13:30:44.127,17.60,19.46,29.21,-0.087,-0.064,0.797,28.52,-0.064,0.087,0.797,179.50,12.67,28.52
13:30:44.462,23.80,25.51,29.85,-0.087,-0.064,0.796,28.50,-0.064,0.087,0.796,179.62,12.51,28.50
13:30:44.797,21.29,23.88,29.84,-0.087,-0.064,0.796,28.52,-0.064,0.087,0.796,179.59,12.57,28.52
13:30:45.134,19.02,21.04,29.66,-0.087,-0.064,0.796,28.50,-0.064,0.087,0.796,179.53,12.77,28.50
13:30:45.469,21.54,22.87,29.87,-0.087,-0.064,0.796,28.49,-0.064,0.087,0.796,179.62,12.69,28.49
13:30:45.811,21.16,22.84,29.21,-0.087,-0.063,0.796,28.48,-0.063,0.087,0.796,179.60,12.68,28.48
13:30:46.147,27.89,30.15,29.84,-0.087,-0.063,0.796,28.48,-0.063,0.087,0.796,179.61,12.65,28.48
13:30:46.481,18.71,20.67,29.85,-0.087,-0.063,0.796,28.47,-0.063,0.087,0.796,179.62,12.63,28.47
13:30:46.816,20.67,22.40,29.85,-0.087,-0.064,0.796,28.48,-0.064,0.087,0.796,179.65,12.62,28.48
13:30:47.151,21.67,23.27,29.85,-0.087,-0.064,0.796,28.48,-0.064,0.087,0.796,179.65,12.62,28.48
13:30:47.486,18.97,20.81,29.86,-0.087,-0.064,0.796,28.50,-0.064,0.087,0.796,179.68,12.68,28.50
13:30:47.856,25.55,27.40,27.08,-0.087,-0.063,0.795,28.50,-0.063,0.087,0.795,179.71,12.71,28.50
13:30:48.197,19.48,22.06,29.31,-0.087,-0.064,0.796,28.51,-0.064,0.087,0.796,179.64,12.76,28.51
13:30:48.532,20.84,22.94,29.85,-0.087,-0.064,0.796,28.51,-0.064,0.087,0.796,179.55,12.72,28.51
13:30:48.867,21.51,23.08,29.84,-0.087,-0.064,0.795,28.50,-0.064,0.087,0.795,179.68,12.81,28.50
13:30:49.202,18.69,20.55,29.87,-0.087,-0.064,0.795,28.49,-0.064,0.087,0.795,179.72,12.75,28.49
13:30:49.537,20.89,22.78,29.86,-0.087,-0.064,0.796,28.50,-0.064,0.087,0.796,179.65,12.73,28.50
13:30:49.874,20.67,22.71,29.64,-0.087,-0.064,0.796,28.46,-0.064,0.087,0.796,179.45,12.74,28.46
13:30:50.209,19.77,21.39,29.87,-0.087,-0.064,0.796,28.46,-0.064,0.087,0.796,179.44,12.75,28.46
13:30:50.544,21.97,23.67,29.86,-0.087,-0.064,0.796,28.47,-0.064,0.087,0.796,179.30,12.94,28.47
13:30:50.879,23.80,25.71,29.86,-0.087,-0.064,0.796,28.47,-0.064,0.087,0.796,179.30,12.94,28.47
13:30:51.224,19.64,23.04,28.95,-0.086,-0.064,0.796,28.49,-0.064,0.086,0.796,179.32,13.16,28.49
13:30:51.559,18.66,21.64,29.86,-0.087,-0.064,0.796,28.48,-0.064,0.087,0.796,179.41,12.99,28.48
13:30:51.895,30.04,32.04,29.77,-0.087,-0.064,0.796,28.50,-0.064,0.087,0.796,179.26,13.12,28.50
13:30:52.255,23.93,25.71,27.76,-0.087,-0.064,0.797,28.48,-0.064,0.087,0.797,179.46,12.66,28.48
13:30:52.590,21.91,23.54,29.82,-0.087,-0.064,0.797,28.48,-0.064,0.087,0.797,179.44,12.68,28.48
13:30:52.925,20.38,22.22,29.86,-0.087,-0.064,0.797,28.48,-0.064,0.087,0.797,179.40,12.66,28.48
13:30:53.260,19.49,21.46,29.85,-0.087,-0.064,0.797,28.48,-0.064,0.087,0.797,179.59,12.45,28.48
13:30:53.602,18.44,20.00,29.29,-0.087,-0.064,0.797,28.51,-0.064,0.087,0.797,179.21,12.96,28.51
13:30:53.937,27.27,29.00,29.85,-0.087,-0.064,0.797,28.52,-0.064,0.087,0.797,179.24,12.94,28.52
13:30:54.272,25.09,26.66,29.85,-0.087,-0.064,0.797,28.51,-0.064,0.087,0.797,179.22,12.95,28.51
13:30:54.611,19.80,22.54,29.44,-0.087,-0.064,0.797,28.54,-0.064,0.087,0.797,179.33,12.96,28.54
13:30:54.947,20.52,21.84,29.82,-0.087,-0.064,0.797,28.54,-0.064,0.087,0.797,179.32,12.96,28.54
13:30:55.282,18.02,19.57,29.85,-0.087,-0.064,0.796,28.50,-0.064,0.087,0.796,179.56,12.63,28.50
13:30:55.617,20.23,21.93,29.85,-0.087,-0.064,0.796,28.50,-0.064,0.087,0.796,179.60,12.67,28.50
13:30:55.951,20.37,22.22,29.86,-0.087,-0.064,0.796,28.50,-0.064,0.087,0.796,179.44,12.90,28.50
13:30:56.329,22.40,24.12,26.47,-0.087,-0.064,0.796,28.49,-0.064,0.087,0.796,179.52,12.81,28.49
13:30:56.665,25.34,26.93,29.80,-0.087,-0.064,0.796,28.49,-0.064,0.087,0.796,179.52,12.81,28.49
13:30:57.005,18.86,21.45,29.37,-0.087,-0.064,0.796,28.48,-0.064,0.087,0.796,179.69,12.63,28.48
13:30:57.350,20.59,22.05,29.01,-0.087,-0.064,0.796,28.47,-0.064,0.087,0.796,179.60,12.43,28.47
13:30:57.685,19.14,20.71,29.85,-0.087,-0.064,0.797,28.51,-0.064,0.087,0.797,179.45,12.65,28.51
13:30:58.021,28.97,30.64,29.73,-0.087,-0.064,0.797,28.50,-0.064,0.087,0.797,179.44,12.68,28.50
13:30:58.357,20.06,22.32,29.84,-0.087,-0.064,0.797,28.51,-0.064,0.087,0.797,179.32,12.81,28.51
13:30:58.692,19.61,21.29,29.85,-0.087,-0.064,0.797,28.52,-0.064,0.087,0.797,179.31,12.89,28.52
13:30:59.026,21.68,23.29,29.87,-0.087,-0.064,0.797,28.52,-0.064,0.087,0.797,179.31,12.77,28.52
13:30:59.361,19.34,20.93,29.86,-0.087,-0.064,0.797,28.50,-0.064,0.087,0.797,179.43,12.63,28.50
13:30:59.696,21.50,23.62,29.85,-0.087,-0.064,0.797,28.50,-0.064,0.087,0.797,179.54,12.56,28.50
13:31:00.031,19.98,21.49,29.86,-0.087,-0.064,0.797,28.51,-0.064,0.087,0.797,179.55,12.54,28.51
13:31:00.373,26.68,28.44,29.27,-0.087,-0.064,0.797,28.51,-0.064,0.087,0.797,179.50,12.52,28.51
13:31:00.714,20.15,22.48,29.26,-0.087,-0.064,0.797,28.51,-0.064,0.087,0.797,179.28,13.03,28.51
13:31:01.049,19.92,21.63,29.86,-0.087,-0.064,0.797,28.51,-0.064,0.087,0.797,179.26,13.04,28.51
13:31:01.385,19.12,20.69,29.80,-0.087,-0.064,0.797,28.51,-0.064,0.087,0.797,179.26,13.04,28.51
13:31:01.722,24.55,26.45,29.66,-0.087,-0.064,0.797,28.51,-0.064,0.087,0.797,179.26,13.04,28.51
13:31:02.062,20.84,22.74,29.40,-0.087,-0.064,0.797,28.48,-0.064,0.087,0.797,179.36,12.73,28.48
13:31:02.404,19.93,21.50,29.29,-0.087,-0.064,0.797,28.46,-0.064,0.087,0.797,179.59,12.52,28.46
13:31:02.739,20.98,22.72,29.85,-0.087,-0.064,0.796,28.47,-0.064,0.087,0.796,179.57,12.60,28.47
13:31:03.076,22.55,25.08,29.67,-0.087,-0.064,0.796,28.43,-0.064,0.087,0.796,179.58,12.61,28.43
13:31:03.413,18.92,20.53,29.64,-0.087,-0.064,0.796,28.43,-0.064,0.087,0.796,179.59,12.69,28.43
13:31:03.748,20.09,21.65,29.86,-0.087,-0.064,0.796,28.43,-0.064,0.087,0.796,179.59,12.71,28.43
13:31:04.083,23.60,25.87,29.87,-0.087,-0.064,0.796,28.44,-0.064,0.087,0.796,179.59,12.72,28.44
13:31:04.430,28.90,30.55,28.82,-0.087,-0.063,0.796,28.44,-0.063,0.087,0.796,179.64,12.59,28.44
13:31:04.772,20.60,22.34,29.19,-0.087,-0.063,0.796,28.45,-0.063,0.087,0.796,179.70,12.60,28.45
13:31:05.110,19.56,21.19,29.65,-0.087,-0.063,0.796,28.45,-0.063,0.087,0.796,179.69,12.60,28.45
13:31:05.447,20.26,22.11,29.66,-0.088,-0.063,0.812,28.32,-0.063,0.088,0.812,179.72,3.14,28.32
13:31:05.788,20.53,21.86,29.31,-0.088,-0.063,0.812,28.32,-0.063,0.088,0.812,179.72,3.14,28.32
13:31:06.127,18.71,20.33,29.45,-0.088,-0.062,0.813,28.33,-0.062,0.088,0.813,179.78,2.96,28.33
13:31:06.466,19.94,21.67,29.54,-0.088,-0.062,0.812,28.35,-0.062,0.088,0.812,179.77,3.00,28.35
13:31:06.803,20.10,21.68,29.65,-0.087,-0.063,0.796,28.41,-0.063,0.087,0.796,179.44,12.72,28.41
13:31:07.138,23.92,25.62,29.87,-0.087,-0.064,0.796,28.43,-0.064,0.087,0.796,179.30,12.89,28.43
13:31:07.473,19.28,21.82,29.83,-0.087,-0.064,0.796,28.42,-0.064,0.087,0.796,179.42,12.73,28.42
13:31:07.809,19.66,21.30,29.82,-0.087,-0.063,0.796,28.44,-0.063,0.087,0.796,179.59,12.51,28.44
13:31:08.143,19.97,23.33,29.85,-0.087,-0.063,0.796,28.43,-0.063,0.087,0.796,179.60,12.52,28.43
13:31:08.479,24.81,26.75,29.80,-0.087,-0.064,0.797,28.47,-0.064,0.087,0.797,179.37,12.79,28.47
13:31:08.832,29.75,31.92,28.30,-0.087,-0.063,0.796,28.45,-0.063,0.087,0.796,179.56,12.61,28.45
13:31:09.167,19.79,21.42,29.84,-0.087,-0.064,0.796,28.47,-0.064,0.087,0.796,179.48,12.77,28.47
13:31:09.502,20.73,23.71,29.86,-0.087,-0.063,0.796,28.46,-0.063,0.087,0.796,179.53,12.70,28.46
13:31:09.838,18.52,20.35,29.83,-0.087,-0.064,0.796,28.49,-0.064,0.087,0.796,179.56,12.77,28.49
13:31:10.173,19.83,21.53,29.85,-0.087,-0.063,0.796,28.45,-0.063,0.087,0.796,179.56,12.74,28.45
13:31:10.508,24.24,25.81,29.85,-0.087,-0.063,0.796,28.45,-0.063,0.087,0.796,179.61,12.70,28.45
13:31:10.843,18.61,20.72,29.85,-0.087,-0.063,0.796,28.45,-0.063,0.087,0.796,179.60,12.71,28.45
13:31:11.178,26.01,27.94,29.86,-0.087,-0.063,0.796,28.45,-0.063,0.087,0.796,179.60,12.71,28.45
13:31:11.515,18.81,20.95,29.61,-0.087,-0.063,0.796,28.46,-0.063,0.087,0.796,179.57,12.86,28.46
13:31:11.853,21.04,22.72,29.62,-0.087,-0.063,0.796,28.46,-0.063,0.087,0.796,179.57,12.86,28.46
13:31:12.188,20.81,22.37,29.85,-0.087,-0.063,0.796,28.46,-0.063,0.087,0.796,179.55,12.84,28.46
13:31:12.539,39.45,41.62,28.47,-0.087,-0.063,0.796,28.48,-0.063,0.087,0.796,179.61,12.90,28.48
13:31:12.880,18.71,20.44,29.37,-0.087,-0.063,0.796,28.46,-0.063,0.087,0.796,179.65,12.59,28.46
13:31:13.215,20.91,22.81,29.85,-0.087,-0.063,0.796,28.46,-0.063,0.087,0.796,179.61,12.63,28.46
13:31:13.549,19.75,21.22,29.86,-0.087,-0.063,0.796,28.48,-0.063,0.087,0.796,179.62,12.63,28.48
13:31:13.885,19.27,20.86,29.84,-0.087,-0.063,0.796,28.48,-0.063,0.087,0.796,179.56,12.65,28.48
13:31:14.220,21.22,22.90,29.83,-0.087,-0.064,0.796,28.47,-0.064,0.087,0.796,179.57,12.50,28.47
13:31:14.555,19.77,22.16,29.86,-0.087,-0.064,0.796,28.48,-0.064,0.087,0.796,179.59,12.51,28.48
13:31:14.890,18.11,20.15,29.85,-0.087,-0.064,0.796,28.48,-0.064,0.087,0.796,179.61,12.48,28.48
13:31:15.225,19.73,21.07,29.86,-0.087,-0.064,0.796,28.48,-0.064,0.087,0.796,179.60,12.60,28.48
13:31:15.559,19.00,20.60,29.86,-0.087,-0.064,0.796,28.48,-0.064,0.087,0.796,179.61,12.60,28.48
13:31:15.894,20.78,22.52,29.85,-0.087,-0.064,0.796,28.48,-0.064,0.087,0.796,179.62,12.70,28.48
13:31:16.229,22.40,24.07,29.86,-0.087,-0.064,0.796,28.47,-0.064,0.087,0.796,179.49,12.68,28.47
13:31:16.564,19.85,21.67,29.86,-0.087,-0.064,0.797,28.49,-0.064,0.087,0.797,179.48,12.69,28.49
13:31:16.899,24.99,26.87,29.86,-0.087,-0.064,0.797,28.49,-0.064,0.087,0.797,179.49,12.69,28.49
13:31:17.234,18.46,21.25,29.83,-0.087,-0.064,0.796,28.50,-0.064,0.087,0.796,179.48,12.69,28.50
13:31:17.569,19.62,21.39,29.85,-0.087,-0.064,0.796,28.48,-0.064,0.087,0.796,179.66,12.57,28.48
13:31:17.904,19.71,21.27,29.86,-0.087,-0.064,0.796,28.47,-0.064,0.087,0.796,179.66,12.58,28.47
13:31:18.239,19.69,21.44,29.86,-0.087,-0.064,0.796,28.49,-0.064,0.087,0.796,179.65,12.61,28.49
13:31:18.574,21.94,24.01,29.86,-0.087,-0.064,0.797,28.51,-0.064,0.087,0.797,179.39,12.82,28.51
13:31:18.909,21.96,23.31,29.87,-0.087,-0.064,0.797,28.52,-0.064,0.087,0.797,179.41,12.78,28.52
13:31:19.244,19.91,21.51,29.86,-0.087,-0.064,0.796,28.50,-0.064,0.087,0.796,179.49,12.85,28.50
13:31:19.579,20.47,22.12,29.85,-0.087,-0.064,0.796,28.49,-0.064,0.087,0.796,179.60,12.77,28.49
13:31:19.914,19.29,21.77,29.86,-0.087,-0.064,0.796,28.48,-0.064,0.087,0.796,179.47,12.82,28.48
13:31:20.249,19.03,20.87,29.86,-0.087,-0.064,0.796,28.48,-0.064,0.087,0.796,179.49,12.82,28.48
13:31:20.584,19.45,20.78,29.85,-0.087,-0.064,0.796,28.49,-0.064,0.087,0.796,179.43,12.95,28.49
13:31:20.924,25.68,27.89,29.39,-0.087,-0.064,0.796,28.49,-0.064,0.087,0.796,179.42,12.96,28.49
13:31:21.260,20.80,22.75,29.78,-0.087,-0.064,0.796,28.50,-0.064,0.087,0.796,179.45,12.95,28.50
13:31:21.594,19.17,21.75,29.86,-0.087,-0.064,0.796,28.51,-0.064,0.087,0.796,179.38,13.02,28.51
13:31:21.930,20.20,21.97,29.85,-0.087,-0.064,0.796,28.53,-0.064,0.087,0.796,179.27,13.18,28.53
13:31:22.273,19.68,22.29,29.11,-0.087,-0.064,0.797,28.51,-0.064,0.087,0.797,179.42,12.73,28.51
13:31:22.609,20.52,22.39,29.80,-0.087,-0.064,0.796,28.50,-0.064,0.087,0.796,179.40,12.72,28.50
13:31:22.944,19.94,21.28,29.85,-0.087,-0.064,0.796,28.50,-0.064,0.087,0.796,179.44,12.67,28.50
13:31:23.278,24.37,26.07,29.87,-0.087,-0.064,0.796,28.51,-0.064,0.087,0.796,179.38,12.78,28.51
13:31:23.614,20.31,22.29,29.84,-0.087,-0.064,0.797,28.53,-0.064,0.087,0.797,179.31,13.00,28.53
13:31:23.949,22.52,24.00,29.85,-0.087,-0.064,0.797,28.53,-0.064,0.087,0.797,179.30,13.05,28.53
13:31:24.284,19.42,21.03,29.85,-0.087,-0.064,0.797,28.53,-0.064,0.087,0.797,179.30,13.04,28.53
13:31:24.620,21.08,22.94,29.73,-0.087,-0.064,0.796,28.49,-0.064,0.087,0.796,179.64,12.65,28.49
13:31:24.955,19.25,21.68,29.84,-0.087,-0.064,0.796,28.50,-0.064,0.087,0.796,179.60,12.68,28.50
13:31:25.290,20.50,22.27,29.84,-0.087,-0.064,0.796,28.49,-0.064,0.087,0.796,179.62,12.63,28.49
13:31:25.625,20.71,22.27,29.87,-0.087,-0.064,0.797,28.51,-0.064,0.087,0.797,179.44,12.78,28.51
13:31:25.960,18.60,20.65,29.85,-0.087,-0.064,0.796,28.50,-0.064,0.087,0.796,179.56,12.62,28.50
13:31:26.295,21.19,23.29,29.86,-0.087,-0.064,0.796,28.50,-0.064,0.087,0.796,179.56,12.62,28.50
13:31:26.630,20.71,22.41,29.86,-0.087,-0.064,0.796,28.49,-0.064,0.087,0.796,179.59,12.56,28.49
13:31:26.965,22.10,23.92,29.86,-0.087,-0.064,0.796,28.49,-0.064,0.087,0.796,179.51,12.74,28.49
13:31:27.300,21.86,23.65,29.83,-0.087,-0.064,0.796,28.51,-0.064,0.087,0.796,179.55,12.72,28.51
13:31:27.635,18.37,21.01,29.85,-0.087,-0.064,0.796,28.51,-0.064,0.087,0.796,179.56,12.69,28.51
13:31:27.970,19.64,21.58,29.85,-0.087,-0.064,0.796,28.51,-0.064,0.087,0.796,179.50,12.73,28.51
13:31:28.314,18.46,21.29,29.05,-0.087,-0.064,0.796,28.51,-0.064,0.087,0.796,179.50,12.84,28.51
13:31:28.649,21.64,23.42,29.84,-0.087,-0.064,0.796,28.50,-0.064,0.087,0.796,179.62,12.71,28.50
13:31:28.984,23.25,24.81,29.87,-0.087,-0.064,0.796,28.50,-0.064,0.087,0.796,179.65,12.68,28.50
13:31:29.319,24.91,26.80,29.85,-0.087,-0.064,0.796,28.50,-0.064,0.087,0.796,179.65,12.68,28.50
13:31:29.655,21.08,23.17,29.76,-0.087,-0.063,0.796,28.49,-0.063,0.087,0.796,179.68,12.65,28.49
13:31:29.993,18.16,20.49,29.63,-0.087,-0.063,0.796,28.49,-0.063,0.087,0.796,179.63,12.70,28.49
13:31:30.328,19.20,20.83,29.87,-0.087,-0.063,0.796,28.49,-0.063,0.087,0.796,179.63,12.70,28.49
13:31:30.677,17.86,19.58,28.63,-0.087,-0.064,0.796,28.52,-0.064,0.087,0.796,179.58,12.63,28.52
13:31:31.012,20.12,22.01,29.86,-0.087,-0.064,0.796,28.51,-0.064,0.087,0.796,179.64,12.58,28.51
13:31:31.347,19.92,21.27,29.86,-0.087,-0.064,0.797,28.54,-0.064,0.087,0.797,179.38,12.88,28.54
13:31:31.683,18.68,20.37,29.76,-0.087,-0.064,0.797,28.55,-0.064,0.087,0.797,179.34,12.88,28.55
13:31:32.019,27.40,29.07,29.71,-0.087,-0.064,0.798,28.53,-0.064,0.087,0.798,179.27,12.76,28.53
13:31:32.354,18.38,20.89,29.85,-0.087,-0.064,0.798,28.53,-0.064,0.087,0.798,179.26,12.78,28.53
13:31:32.689,25.09,27.04,29.85,-0.087,-0.064,0.798,28.54,-0.064,0.087,0.798,179.20,12.92,28.54
13:31:33.025,19.44,20.99,29.80,-0.087,-0.064,0.797,28.54,-0.064,0.087,0.797,179.20,12.96,28.54
13:31:33.360,17.28,18.95,29.86,-0.087,-0.064,0.797,28.53,-0.064,0.087,0.797,179.22,13.01,28.53
13:31:33.695,22.07,23.96,29.85,-0.087,-0.064,0.797,28.56,-0.064,0.087,0.797,179.19,13.12,28.56
13:31:34.030,22.26,24.43,29.86,-0.087,-0.064,0.797,28.57,-0.064,0.087,0.797,179.18,13.09,28.57
13:31:34.373,16.88,19.05,29.15,0.000,0.000,0.000,0.00,0.000,0.000,0.000,0.00,0.00,0.00
13:31:34.709,17.38,18.90,29.74,0.000,0.000,0.000,0.00,0.000,0.000,0.000,0.00,0.00,0.00
13:31:35.046,20.25,21.94,29.66,-0.085,-0.063,0.816,29.56,-0.063,0.085,0.816,-178.19,-3.21,29.56
13:31:35.383,21.95,23.62,29.63,-0.055,-0.072,0.820,40.51,-0.072,0.055,0.820,-177.58,-4.38,40.51
13:31:35.718,16.71,18.49,29.85,0.001,-0.079,0.797,49.07,-0.079,-0.001,0.797,-179.32,13.58,49.07
13:31:36.053,20.29,22.23,29.86,0.048,-0.074,0.825,55.89,-0.074,-0.048,0.825,178.88,1.47,55.89
13:31:36.390,19.82,21.51,29.75,0.107,-0.070,0.827,71.92,-0.070,-0.107,0.827,177.85,2.94,71.92
13:31:36.724,18.38,19.97,29.87,0.150,-0.061,0.810,85.07,-0.061,-0.150,0.810,-179.51,8.58,85.07
13:31:37.062,19.05,21.32,29.63,0.151,-0.060,0.805,85.51,-0.060,-0.151,0.805,179.81,6.63,85.51
13:31:37.399,18.52,20.27,29.64,0.151,-0.060,0.806,85.51,-0.060,-0.151,0.806,179.86,6.66,85.51
13:31:37.734,21.57,23.27,29.86,0.151,-0.060,0.806,85.51,-0.060,-0.151,0.806,179.83,6.65,85.51
13:31:38.069,20.86,22.50,29.86,0.151,-0.060,0.806,85.56,-0.060,-0.151,0.806,179.56,6.84,85.56
13:31:38.404,18.80,20.40,29.86,0.151,-0.060,0.806,85.56,-0.060,-0.151,0.806,179.59,6.82,85.56
13:31:38.739,20.56,22.22,29.86,0.151,-0.060,0.806,85.58,-0.060,-0.151,0.806,179.68,6.71,85.58
13:31:39.074,19.20,22.35,29.86,0.151,-0.060,0.805,85.59,-0.060,-0.151,0.805,-179.94,6.60,85.59
13:31:39.409,20.38,22.28,29.84,0.151,-0.060,0.805,85.58,-0.060,-0.151,0.805,-179.94,6.49,85.58
13:31:39.744,19.60,20.93,29.87,0.151,-0.060,0.806,85.58,-0.060,-0.151,0.806,180.00,6.48,85.58
13:31:40.078,24.85,26.86,29.86,0.151,-0.060,0.806,85.58,-0.060,-0.151,0.806,179.74,6.68,85.58
13:31:40.416,22.27,24.12,29.63,0.151,-0.060,0.806,85.55,-0.060,-0.151,0.806,179.60,6.68,85.55
13:31:40.751,23.44,25.54,29.84,0.152,-0.060,0.807,85.54,-0.060,-0.152,0.807,179.45,6.68,85.54
13:31:41.087,20.90,22.56,29.80,0.151,-0.060,0.807,85.54,-0.060,-0.151,0.807,179.54,6.70,85.54
13:31:41.428,18.14,19.89,29.27,0.000,0.000,0.000,0.00,0.000,0.000,0.000,0.00,0.00,0.00
13:31:41.770,17.33,19.28,29.23,0.000,0.000,0.000,0.00,0.000,0.000,0.000,0.00,0.00,0.00
13:31:42.105,18.21,19.59,29.86,0.000,0.000,0.000,0.00,0.000,0.000,0.000,0.00,0.00,0.00
13:31:42.442,16.75,18.85,29.66,0.000,0.000,0.000,0.00,0.000,0.000,0.000,0.00,0.00,0.00
13:31:42.784,20.21,21.77,29.26,0.114,-0.046,0.827,116.09,-0.046,-0.114,0.827,177.22,0.08,116.09
13:31:43.123,16.47,18.42,29.51,0.000,0.000,0.000,0.00,0.000,0.000,0.000,0.00,0.00,0.00
13:31:43.463,17.86,20.87,29.41,0.000,0.000,0.000,0.00,0.000,0.000,0.000,0.00,0.00,0.00
13:31:43.798,16.90,18.51,29.83,0.000,0.000,0.000,0.00,0.000,0.000,0.000,0.00,0.00,0.00
13:31:44.141,22.25,24.06,29.17,0.000,0.000,0.000,0.00,0.000,0.000,0.000,0.00,0.00,0.00
13:31:44.480,16.73,18.65,29.46,0.000,0.000,0.000,0.00,0.000,0.000,0.000,0.00,0.00,0.00
13:31:44.824,19.37,23.32,29.09,0.000,0.000,0.000,0.00,0.000,0.000,0.000,0.00,0.00,0.00
13:31:45.161,19.76,21.53,29.65,0.042,-0.034,0.822,120.06,-0.034,-0.042,0.822,-178.93,-3.03,120.06
13:31:45.501,20.66,23.73,29.45,0.000,0.000,0.000,0.00,0.000,0.000,0.000,0.00,0.00,0.00
13:31:45.840,19.60,21.37,29.53,0.040,-0.034,0.825,119.63,-0.034,-0.040,0.825,-179.79,-2.97,119.63
13:31:46.176,24.77,26.52,29.73,0.036,-0.034,0.820,116.95,-0.034,-0.036,0.820,-179.68,-4.84,116.95
13:31:46.511,20.32,22.50,29.82,0.029,-0.034,0.819,112.48,-0.034,-0.029,0.819,-179.80,-1.90,112.48
13:31:46.849,23.00,24.70,29.64,0.026,-0.034,0.822,111.25,-0.034,-0.026,0.822,-178.66,-1.02,111.25
13:31:47.187,20.19,21.75,29.60,0.026,-0.031,0.797,111.46,-0.031,-0.026,0.797,-179.42,17.02,111.46
13:31:47.522,20.00,21.86,29.84,0.017,-0.028,0.820,108.46,-0.028,-0.017,0.820,179.81,-1.31,108.46
13:31:47.857,20.14,22.26,29.84,0.013,-0.023,0.794,107.72,-0.023,-0.013,0.794,-178.18,15.56,107.72
13:31:48.192,19.78,21.90,29.86,0.005,-0.018,0.823,105.66,-0.018,-0.005,0.823,-179.27,-2.40,105.66
13:31:48.527,22.73,24.54,29.86,-0.000,-0.014,0.824,104.97,-0.014,0.000,0.824,177.23,-0.90,104.97
13:31:48.864,19.47,21.07,29.64,-0.008,-0.008,0.821,104.82,-0.008,0.008,0.821,175.79,0.24,104.82
13:31:49.202,20.04,21.90,29.58,-0.009,-0.007,0.817,105.15,-0.007,0.009,0.817,174.15,3.87,105.15
13:31:49.537,21.32,23.22,29.86,-0.009,-0.008,0.821,105.29,-0.008,0.009,0.821,179.64,2.05,105.29
13:31:49.872,20.62,22.84,29.84,-0.011,-0.008,0.822,105.50,-0.008,0.011,0.822,178.78,-0.36,105.50
13:31:50.208,19.50,21.22,29.81,-0.012,-0.008,0.821,105.62,-0.008,0.012,0.821,179.29,-2.53,105.62
13:31:50.543,20.30,21.86,29.85,-0.012,-0.007,0.823,107.58,-0.007,0.012,0.823,-178.71,-2.29,107.58
13:31:50.878,22.73,24.76,29.86,-0.012,-0.005,0.823,108.24,-0.005,0.012,0.823,176.33,0.99,108.24
13:31:51.213,23.51,25.16,29.86,-0.012,-0.005,0.823,108.23,-0.005,0.012,0.823,176.76,1.01,108.23
13:31:51.548,22.56,24.33,29.85,-0.012,-0.006,0.820,108.34,-0.006,0.012,0.820,-173.40,0.11,108.34
13:31:51.883,18.57,20.46,29.85,0.000,0.000,0.000,0.00,0.000,0.000,0.000,0.00,0.00,0.00
13:31:52.226,19.43,20.94,29.14,0.000,0.000,0.000,0.00,0.000,0.000,0.000,0.00,0.00,0.00
13:31:52.563,18.58,20.25,29.61,0.000,0.000,0.000,0.00,0.000,0.000,0.000,0.00,0.00,0.00
13:31:52.903,18.05,19.67,29.47,0.000,0.000,0.000,0.00,0.000,0.000,0.000,0.00,0.00,0.00
13:31:53.240,16.54,18.47,29.68,0.000,0.000,0.000,0.00,0.000,0.000,0.000,0.00,0.00,0.00
13:31:53.577,18.01,20.04,29.64,0.000,0.000,0.000,0.00,0.000,0.000,0.000,0.00,0.00,0.00
13:31:53.914,16.69,19.47,29.66,0.000,0.000,0.000,0.00,0.000,0.000,0.000,0.00,0.00,0.00
13:31:54.251,18.53,20.28,29.65,0.000,0.000,0.000,0.00,0.000,0.000,0.000,0.00,0.00,0.00
13:31:54.589,17.95,21.74,29.64,0.000,0.000,0.000,0.00,0.000,0.000,0.000,0.00,0.00,0.00
13:31:54.928,16.72,18.75,29.48,0.000,0.000,0.000,0.00,0.000,0.000,0.000,0.00,0.00,0.00
13:31:55.266,20.88,22.27,29.63,-0.005,-0.021,0.800,94.83,-0.021,0.005,0.800,-176.03,14.29,94.83
13:31:55.601,17.38,18.92,29.86,-0.005,-0.021,0.800,94.82,-0.021,0.005,0.800,-176.01,14.29,94.82
13:31:55.935,20.72,22.41,29.86,-0.006,-0.021,0.799,94.81,-0.021,0.006,0.799,-175.73,14.21,94.81
13:31:56.270,18.79,21.26,29.85,-0.006,-0.021,0.798,94.81,-0.021,0.006,0.798,-175.69,14.20,94.81
13:31:56.605,18.29,20.19,29.86,-0.006,-0.021,0.799,94.81,-0.021,0.006,0.799,-175.72,14.20,94.81
13:31:56.943,22.93,24.59,29.59,-0.006,-0.021,0.798,94.80,-0.021,0.006,0.798,-175.66,14.18,94.80
13:31:57.278,18.46,20.05,29.86,-0.006,-0.021,0.799,94.79,-0.021,0.006,0.799,-175.73,14.14,94.79
13:31:57.616,21.66,23.72,29.63,-0.006,-0.021,0.799,94.79,-0.021,0.006,0.799,-175.86,14.11,94.79
13:31:57.953,19.10,22.32,29.63,-0.006,-0.021,0.799,94.77,-0.021,0.006,0.799,-175.76,14.08,94.77
13:31:58.291,20.78,22.93,29.58,-0.006,-0.021,0.799,94.81,-0.021,0.006,0.799,-175.79,14.21,94.81
13:31:58.626,20.91,22.29,29.86,-0.006,-0.021,0.799,94.81,-0.021,0.006,0.799,-175.78,14.15,94.81
13:31:58.961,19.54,21.14,29.85,-0.006,-0.021,0.799,94.80,-0.021,0.006,0.799,-175.77,14.16,94.80
13:31:59.297,21.02,23.04,29.81,-0.006,-0.021,0.799,94.80,-0.021,0.006,0.799,-175.78,14.13,94.80
13:31:59.634,20.26,22.09,29.64,-0.006,-0.021,0.799,94.81,-0.021,0.006,0.799,-175.73,14.18,94.81
13:31:59.969,21.80,23.77,29.85,-0.006,-0.021,0.799,94.80,-0.021,0.006,0.799,-175.89,14.15,94.80
13:32:00.304,19.90,21.23,29.86,-0.006,-0.021,0.799,94.80,-0.021,0.006,0.799,-175.90,14.16,94.80
13:32:00.639,17.89,19.43,29.86,-0.006,-0.021,0.799,94.81,-0.021,0.006,0.799,-175.92,14.26,94.81
13:32:00.974,20.78,22.53,29.85,-0.005,-0.021,0.799,94.87,-0.021,0.005,0.799,-176.10,14.59,94.87
13:32:01.309,21.59,23.87,29.86,-0.006,-0.021,0.799,94.81,-0.021,0.006,0.799,-175.86,14.23,94.81
13:32:01.644,20.02,21.85,29.86,-0.006,-0.021,0.799,94.81,-0.021,0.006,0.799,-175.81,14.19,94.81
13:32:01.987,20.46,22.05,29.11,-0.006,-0.021,0.798,94.80,-0.021,0.006,0.798,-175.68,14.25,94.80
13:32:02.322,19.07,20.75,29.85,-0.006,-0.021,0.798,94.78,-0.021,0.006,0.798,-175.58,14.15,94.78
13:32:02.657,21.55,23.29,29.85,-0.006,-0.021,0.799,94.74,-0.021,0.006,0.799,-175.74,13.81,94.74
13:32:02.992,19.40,21.85,29.84,-0.008,-0.019,0.821,93.52,-0.019,0.008,0.821,-179.88,-0.39,93.52
13:32:03.328,21.53,23.23,29.81,-0.008,-0.020,0.821,93.51,-0.020,0.008,0.821,-179.81,-0.38,93.51
13:32:03.663,22.11,23.72,29.87,-0.008,-0.019,0.821,93.52,-0.019,0.008,0.821,-179.97,-0.40,93.52
13:32:03.997,20.54,22.35,29.86,-0.008,-0.019,0.820,93.51,-0.019,0.008,0.820,179.97,-0.43,93.51
13:32:04.332,22.16,24.16,29.85,-0.005,-0.021,0.798,94.80,-0.021,0.005,0.798,-175.62,14.19,94.80
13:32:04.667,21.57,23.10,29.86,-0.005,-0.021,0.799,94.82,-0.021,0.005,0.799,-175.69,14.18,94.82
13:32:05.002,19.22,20.89,29.84,-0.005,-0.021,0.799,94.81,-0.021,0.005,0.799,-175.71,14.15,94.81
13:32:05.337,24.04,26.96,29.85,-0.005,-0.021,0.799,94.81,-0.021,0.005,0.799,-175.70,14.16,94.81
13:32:05.672,18.38,21.08,29.85,-0.006,-0.021,0.798,94.77,-0.021,0.006,0.798,-175.60,13.95,94.77
13:32:06.007,20.14,22.03,29.85,-0.006,-0.021,0.798,94.76,-0.021,0.006,0.798,-175.59,13.94,94.76
13:32:06.344,21.28,22.65,29.66,-0.005,-0.021,0.799,94.79,-0.021,0.005,0.799,-175.65,14.02,94.79
13:32:06.679,17.98,19.49,29.86,-0.005,-0.021,0.799,94.86,-0.021,0.005,0.799,-175.94,14.27,94.86
13:32:07.014,21.80,23.49,29.85,-0.005,-0.021,0.800,94.83,-0.021,0.005,0.800,-175.86,14.03,94.83
13:32:07.351,18.61,21.06,29.72,-0.005,-0.021,0.800,94.82,-0.021,0.005,0.800,-175.95,13.96,94.82
13:32:07.691,20.69,22.74,29.43,-0.005,-0.021,0.800,94.82,-0.021,0.005,0.800,-175.88,13.98,94.82
13:32:08.029,19.81,22.12,29.52,-0.005,-0.021,0.799,94.86,-0.021,0.005,0.799,-175.88,14.28,94.86
13:32:08.364,19.83,21.45,29.86,-0.005,-0.021,0.799,94.88,-0.021,0.005,0.799,-175.85,14.35,94.88
13:32:08.699,23.98,27.27,29.86,-0.005,-0.021,0.799,94.88,-0.021,0.005,0.799,-175.84,14.31,94.88
13:32:09.035,19.62,21.56,29.75,-0.005,-0.021,0.799,94.86,-0.021,0.005,0.799,-175.88,14.46,94.86
13:32:09.370,20.16,22.12,29.85,-0.005,-0.021,0.799,94.86,-0.021,0.005,0.799,-175.84,14.47,94.86
13:32:09.705,21.93,23.27,29.86,-0.005,-0.021,0.799,94.88,-0.021,0.005,0.799,-175.85,14.48,94.88
13:32:10.040,19.59,21.19,29.86,-0.005,-0.021,0.799,94.88,-0.021,0.005,0.799,-175.86,14.48,94.88
13:32:10.375,21.12,22.99,29.86,-0.005,-0.021,0.799,94.87,-0.021,0.005,0.799,-175.93,14.47,94.87
13:32:10.710,20.70,23.02,29.86,-0.005,-0.021,0.799,94.87,-0.021,0.005,0.799,-175.92,14.46,94.87
13:32:11.045,19.39,21.03,29.87,-0.005,-0.021,0.799,94.86,-0.021,0.005,0.799,-175.82,14.45,94.86
13:32:11.380,25.28,26.85,29.86,-0.005,-0.021,0.799,94.81,-0.021,0.005,0.799,-175.69,14.10,94.81
13:32:11.715,20.40,22.12,29.83,-0.005,-0.021,0.799,94.80,-0.021,0.005,0.799,-175.70,14.10,94.80
13:32:12.050,20.14,22.13,29.86,-0.005,-0.021,0.799,94.80,-0.021,0.005,0.799,-175.69,14.08,94.80
13:32:12.385,21.80,23.13,29.86,-0.005,-0.021,0.799,94.80,-0.021,0.005,0.799,-175.71,14.10,94.80
13:32:12.726,19.22,20.99,29.29,-0.005,-0.021,0.799,94.80,-0.021,0.005,0.799,-175.63,14.13,94.80
13:32:13.061,22.52,25.96,29.84,-0.006,-0.021,0.798,94.79,-0.021,0.006,0.798,-175.57,14.14,94.79
13:32:13.396,18.51,20.24,29.85,-0.005,-0.021,0.798,94.80,-0.021,0.005,0.798,-175.61,14.15,94.80
13:32:13.734,22.76,24.49,29.56,-0.006,-0.022,0.798,94.80,-0.022,0.006,0.798,-175.47,14.20,94.80
13:32:14.070,20.09,21.87,29.80,-0.005,-0.021,0.799,94.77,-0.021,0.005,0.799,-175.78,14.01,94.77
13:32:14.405,19.48,21.10,29.85,-0.005,-0.021,0.799,94.77,-0.021,0.005,0.799,-175.71,14.10,94.77
13:32:14.745,17.68,19.29,29.42,-0.005,-0.021,0.799,94.78,-0.021,0.005,0.799,-175.68,14.03,94.78
13:32:15.082,19.92,21.74,29.63,-0.008,-0.020,0.820,93.48,-0.020,0.008,0.820,-178.88,-0.09,93.48
13:32:15.418,19.27,21.22,29.84,-0.008,-0.020,0.820,93.50,-0.020,0.008,0.820,-179.02,-0.19,93.50
13:32:15.753,18.23,20.29,29.85,-0.008,-0.019,0.820,93.51,-0.019,0.008,0.820,179.74,-0.33,93.51
13:32:16.087,19.92,22.00,29.87,-0.005,-0.021,0.800,94.86,-0.021,0.005,0.800,-175.89,14.18,94.86
13:32:16.423,19.39,22.97,29.83,-0.005,-0.021,0.800,94.85,-0.021,0.005,0.800,-175.89,14.41,94.85
13:32:16.758,16.97,19.89,29.86,-0.005,-0.021,0.802,94.76,-0.021,0.005,0.802,-176.04,13.64,94.76
13:32:17.092,19.53,21.39,29.86,-0.006,-0.022,0.798,94.75,-0.022,0.006,0.798,-175.17,13.84,94.75
13:32:17.427,18.75,20.38,29.85,-0.006,-0.021,0.801,94.50,-0.021,0.006,0.801,-176.62,13.32,94.50
13:32:17.762,18.44,20.40,29.86,-0.006,-0.021,0.800,94.57,-0.021,0.006,0.800,-176.02,13.38,94.57
13:32:18.100,18.56,20.26,29.60,-0.004,-0.022,0.811,94.68,-0.022,0.004,0.811,-178.36,12.63,94.68
13:32:18.436,17.28,20.24,29.81,-0.006,-0.022,0.805,94.63,-0.022,0.006,0.805,-176.58,12.90,94.63
