Timestamp,Algo_ms,Loop_ms,FPS,Body_X,Body_Y,Alt_Z,Marker_Yaw,Cam_X,Cam_Y,Cam_Z,Cam_Roll,Cam_Pitch,Cam_Yaw
15:19:22.834,17.80,19.48,26.49,0.015,-0.068,0.814,171.99,-0.068,-0.015,0.814,-177.78,2.78,171.99
15:19:23.169,19.47,20.99,29.85,0.015,-0.067,0.815,171.99,-0.067,-0.015,0.815,-177.92,2.81,171.99
15:19:23.504,19.70,21.03,29.86,0.015,-0.067,0.814,171.97,-0.067,-0.015,0.814,-178.11,2.63,171.97
15:19:23.839,18.39,20.13,29.85,0.015,-0.067,0.815,171.99,-0.067,-0.015,0.815,-178.00,2.92,171.99
15:19:24.174,18.94,20.52,29.85,0.015,-0.067,0.814,171.97,-0.067,-0.015,0.814,-178.05,3.08,171.97
15:19:24.508,19.49,20.93,29.85,0.015,-0.067,0.815,171.97,-0.067,-0.015,0.815,-178.04,3.04,171.97
15:19:24.843,19.51,21.13,29.86,0.015,-0.067,0.814,171.96,-0.067,-0.015,0.814,-178.01,2.95,171.96
15:19:25.178,20.88,22.67,29.84,0.015,-0.067,0.814,171.95,-0.067,-0.015,0.814,-177.83,2.99,171.95
15:19:25.513,18.49,21.55,29.86,0.015,-0.067,0.814,171.97,-0.067,-0.015,0.814,-177.87,3.20,171.97
15:19:25.848,18.62,20.13,29.85,0.015,-0.067,0.814,171.97,-0.067,-0.015,0.814,-177.88,3.23,171.97
15:19:26.183,19.27,20.59,29.86,0.015,-0.067,0.814,171.98,-0.067,-0.015,0.814,-177.87,3.30,171.98
15:19:26.518,19.44,20.89,29.86,0.015,-0.067,0.814,172.00,-0.067,-0.015,0.814,-178.14,3.60,172.00
15:19:26.853,20.20,21.90,29.85,0.015,-0.067,0.814,172.01,-0.067,-0.015,0.814,-178.08,3.66,172.01
15:19:27.188,21.47,22.75,29.85,0.015,-0.067,0.814,172.00,-0.067,-0.015,0.814,-178.04,3.53,172.00
15:19:27.523,19.09,20.54,29.86,0.015,-0.067,0.814,172.00,-0.067,-0.015,0.814,-178.04,3.61,172.00
15:19:27.858,19.61,22.51,29.86,0.015,-0.067,0.814,172.01,-0.067,-0.015,0.814,-177.94,3.79,172.01
15:19:28.193,20.18,22.72,29.86,0.015,-0.067,0.814,172.01,-0.067,-0.015,0.814,-177.97,3.76,172.01
15:19:28.528,19.10,20.60,29.86,0.015,-0.067,0.814,172.00,-0.067,-0.015,0.814,-177.92,3.72,172.00
15:19:28.863,19.37,20.89,29.86,0.015,-0.067,0.814,172.00,-0.067,-0.015,0.814,-177.95,3.75,172.00
15:19:29.198,18.09,19.55,29.86,0.015,-0.067,0.814,171.99,-0.067,-0.015,0.814,-177.78,3.81,171.99
15:19:29.533,20.69,22.19,29.85,0.014,-0.067,0.814,171.99,-0.067,-0.014,0.814,-178.10,3.66,171.99
15:19:29.868,20.08,21.43,29.85,0.014,-0.067,0.814,171.99,-0.067,-0.014,0.814,-177.82,3.71,171.99
15:19:30.203,17.60,19.18,29.78,0.014,-0.067,0.815,171.98,-0.067,-0.014,0.815,-177.82,3.75,171.98
15:19:30.539,19.87,22.96,29.85,0.014,-0.067,0.815,171.98,-0.067,-0.014,0.815,-177.84,3.81,171.98
15:19:30.874,20.71,23.09,29.85,0.014,-0.067,0.814,171.99,-0.067,-0.014,0.814,-177.70,3.92,171.99
15:19:31.209,20.66,22.92,29.85,0.014,-0.067,0.815,171.97,-0.067,-0.014,0.815,-177.79,3.84,171.97
15:19:31.544,20.50,21.79,29.84,0.014,-0.067,0.814,171.99,-0.067,-0.014,0.814,-178.32,3.83,171.99
15:19:31.879,18.52,19.97,29.85,0.014,-0.067,0.814,171.99,-0.067,-0.014,0.814,-178.25,3.85,171.99
15:19:32.214,20.33,21.93,29.85,0.014,-0.067,0.814,172.00,-0.067,-0.014,0.814,-178.39,3.95,172.00
15:19:32.549,21.00,22.46,29.84,0.016,-0.064,0.802,173.12,-0.064,-0.016,0.802,-176.99,16.83,173.12
15:19:32.884,19.34,20.93,29.86,0.014,-0.067,0.814,172.01,-0.067,-0.014,0.814,-178.51,4.22,172.01
15:19:33.219,19.85,22.08,29.85,0.014,-0.067,0.814,172.00,-0.067,-0.014,0.814,-178.23,4.14,172.00
15:19:33.554,18.10,20.57,29.85,0.014,-0.067,0.814,172.00,-0.067,-0.014,0.814,-178.41,4.05,172.00
15:19:33.889,21.13,22.64,29.84,0.014,-0.067,0.814,172.00,-0.067,-0.014,0.814,-178.51,4.44,172.00
15:19:34.224,19.40,20.73,29.86,0.014,-0.067,0.814,172.01,-0.067,-0.014,0.814,-178.49,4.45,172.01
15:19:34.559,18.20,19.73,29.84,0.014,-0.067,0.814,172.00,-0.067,-0.014,0.814,-178.46,4.51,172.00
15:19:34.894,22.14,23.73,29.85,0.014,-0.067,0.814,172.02,-0.067,-0.014,0.814,-178.60,4.74,172.02
15:19:35.229,20.74,22.18,29.84,0.014,-0.067,0.814,172.02,-0.067,-0.014,0.814,-178.63,4.72,172.02
15:19:35.564,19.42,20.89,29.86,0.014,-0.067,0.814,172.02,-0.067,-0.014,0.814,-178.79,4.67,172.02
15:19:35.899,19.42,21.73,29.84,0.014,-0.067,0.814,172.00,-0.067,-0.014,0.814,-178.78,4.27,172.00
15:19:36.234,17.77,20.74,29.86,0.014,-0.067,0.814,172.01,-0.067,-0.014,0.814,-178.45,4.68,172.01
15:19:36.569,19.09,20.73,29.86,0.014,-0.067,0.814,172.00,-0.067,-0.014,0.814,-178.47,4.46,172.00
15:19:36.904,20.09,21.57,29.85,0.014,-0.068,0.815,171.87,-0.068,-0.014,0.815,-177.51,2.36,171.87
15:19:37.239,23.07,25.03,29.85,0.014,-0.067,0.814,171.99,-0.067,-0.014,0.814,-178.88,4.18,171.99
15:19:37.574,19.00,20.59,29.84,0.014,-0.068,0.814,171.94,-0.068,-0.014,0.814,-178.54,3.53,171.94
15:19:37.909,21.78,23.10,29.83,0.014,-0.068,0.814,171.94,-0.068,-0.014,0.814,-178.46,3.57,171.94
15:19:38.244,20.32,21.92,29.86,0.014,-0.068,0.814,171.94,-0.068,-0.014,0.814,-178.42,3.49,171.94
15:19:38.579,19.36,20.92,29.84,0.014,-0.068,0.814,171.91,-0.068,-0.014,0.814,-178.51,3.27,171.91
15:19:38.914,17.96,20.64,29.85,0.014,-0.068,0.814,171.91,-0.068,-0.014,0.814,-178.18,3.40,171.91
15:19:39.249,19.11,20.61,29.86,0.014,-0.068,0.814,171.92,-0.068,-0.014,0.814,-178.25,3.64,171.92
15:19:39.584,22.57,23.91,29.86,0.014,-0.067,0.814,171.95,-0.067,-0.014,0.814,-178.67,4.17,171.95
15:19:39.919,17.52,19.05,29.84,0.014,-0.068,0.814,171.94,-0.068,-0.014,0.814,-178.43,3.81,171.94
15:19:40.254,19.56,21.28,29.84,0.014,-0.068,0.814,171.93,-0.068,-0.014,0.814,-178.35,3.59,171.93
15:19:40.589,23.67,25.09,29.85,0.015,-0.068,0.814,171.92,-0.068,-0.015,0.814,-178.45,3.38,171.92
15:19:40.924,18.39,19.77,29.86,0.015,-0.068,0.814,171.95,-0.068,-0.015,0.814,-179.13,4.18,171.95
15:19:41.259,19.58,22.12,29.85,0.015,-0.068,0.814,171.94,-0.068,-0.015,0.814,-179.21,4.27,171.94
15:19:41.594,18.18,20.88,29.85,0.014,-0.068,0.814,171.93,-0.068,-0.014,0.814,-179.11,3.74,171.93
15:19:41.929,19.62,21.27,29.85,0.015,-0.068,0.814,171.93,-0.068,-0.015,0.814,-179.09,3.75,171.93
15:19:42.264,19.27,20.59,29.86,0.015,-0.068,0.814,171.91,-0.068,-0.015,0.814,-179.12,3.47,171.91
15:19:42.599,17.97,19.47,29.85,0.014,-0.068,0.814,171.92,-0.068,-0.014,0.814,-179.40,3.28,171.92
15:19:42.934,20.14,21.88,29.85,0.014,-0.068,0.814,171.91,-0.068,-0.014,0.814,-179.22,3.41,171.91
15:19:43.271,21.77,24.27,29.61,0.015,-0.068,0.814,171.91,-0.068,-0.015,0.814,-179.16,3.18,171.91
15:19:43.606,19.92,21.58,29.85,0.015,-0.068,0.814,171.90,-0.068,-0.015,0.814,-178.81,3.22,171.90
15:19:43.941,19.32,20.62,29.85,0.015,-0.068,0.814,171.90,-0.068,-0.015,0.814,-178.69,3.13,171.90
15:19:44.276,17.83,19.21,29.86,0.015,-0.068,0.814,171.90,-0.068,-0.015,0.814,-178.85,3.11,171.90
15:19:44.611,19.75,21.21,29.84,0.015,-0.068,0.814,171.86,-0.068,-0.015,0.814,-178.24,2.88,171.86
15:19:44.947,22.18,23.54,29.84,0.015,-0.068,0.814,171.87,-0.068,-0.015,0.814,-178.34,2.78,171.87
15:19:45.282,18.53,20.19,29.84,0.015,-0.068,0.814,171.86,-0.068,-0.015,0.814,-178.29,2.84,171.86
15:19:45.617,19.16,21.01,29.85,0.015,-0.068,0.814,171.88,-0.068,-0.015,0.814,-178.65,3.05,171.88
15:19:45.952,19.25,21.49,29.83,0.015,-0.068,0.814,171.87,-0.068,-0.015,0.814,-178.50,3.00,171.87
15:19:46.287,18.72,20.23,29.86,0.015,-0.068,0.814,171.86,-0.068,-0.015,0.814,-178.42,2.88,171.86
15:19:46.622,22.99,24.41,29.85,0.015,-0.068,0.814,171.86,-0.068,-0.015,0.814,-178.40,2.91,171.86
15:19:46.957,18.29,19.69,29.85,0.015,-0.068,0.814,171.85,-0.068,-0.015,0.814,-178.28,2.82,171.85
15:19:47.292,19.85,21.32,29.85,0.015,-0.068,0.814,171.84,-0.068,-0.015,0.814,-178.03,2.81,171.84
15:19:47.627,21.09,22.42,29.86,0.015,-0.068,0.814,171.86,-0.068,-0.015,0.814,-178.44,3.12,171.86
15:19:47.962,19.04,20.71,29.85,0.015,-0.068,0.814,171.86,-0.068,-0.015,0.814,-178.50,3.16,171.86
15:19:48.297,19.45,22.12,29.85,0.015,-0.068,0.814,171.88,-0.068,-0.015,0.814,-178.81,3.50,171.88
15:19:48.632,18.50,20.77,29.84,0.015,-0.068,0.814,171.89,-0.068,-0.015,0.814,-178.75,3.49,171.89
15:19:48.967,18.79,20.28,29.85,0.015,-0.068,0.814,171.90,-0.068,-0.015,0.814,-179.09,3.58,171.90
15:19:49.302,25.02,26.47,29.85,0.015,-0.068,0.814,171.90,-0.068,-0.015,0.814,-179.37,3.52,171.90
15:19:49.637,18.43,19.92,29.86,0.015,-0.068,0.814,171.90,-0.068,-0.015,0.814,-179.39,3.50,171.90
15:19:49.972,20.32,21.97,29.85,0.015,-0.068,0.814,171.90,-0.068,-0.015,0.814,-179.48,3.41,171.90
15:19:50.307,20.27,21.52,29.85,0.015,-0.068,0.814,171.90,-0.068,-0.015,0.814,-179.51,3.48,171.90
15:19:50.642,18.91,20.56,29.85,0.015,-0.068,0.814,171.89,-0.068,-0.015,0.814,-179.52,3.31,171.89
15:19:50.977,22.79,24.44,29.86,0.015,-0.068,0.814,171.91,-0.068,-0.015,0.814,-179.65,3.35,171.91
15:19:51.312,19.26,21.51,29.86,0.015,-0.068,0.814,171.90,-0.068,-0.015,0.814,-179.72,3.57,171.90
15:19:51.647,23.07,25.28,29.85,0.015,-0.068,0.814,171.91,-0.068,-0.015,0.814,-179.76,3.58,171.91
15:19:51.982,19.46,20.85,29.84,0.015,-0.068,0.813,171.93,-0.068,-0.015,0.813,-179.84,3.96,171.93
15:19:52.317,18.25,19.74,29.86,0.015,-0.068,0.814,171.93,-0.068,-0.015,0.814,-179.68,4.04,171.93
15:19:52.652,20.06,21.71,29.85,0.014,-0.068,0.815,171.78,-0.068,-0.014,0.815,-177.17,1.40,171.78
15:19:52.987,20.73,21.96,29.84,0.014,-0.068,0.815,171.79,-0.068,-0.014,0.815,-177.18,1.40,171.79
15:19:53.322,18.42,20.15,29.85,0.014,-0.068,0.815,171.77,-0.068,-0.014,0.815,-177.12,1.49,171.77
15:19:53.657,21.86,23.49,29.86,0.015,-0.068,0.814,171.91,-0.068,-0.015,0.814,-179.44,4.06,171.91
15:19:53.992,23.59,25.16,29.84,0.015,-0.068,0.814,171.91,-0.068,-0.015,0.814,-179.43,4.15,171.91
15:19:54.327,18.71,20.21,29.85,0.014,-0.068,0.815,171.76,-0.068,-0.014,0.815,-177.25,1.64,171.76
15:19:54.662,19.66,21.05,29.84,0.014,-0.068,0.815,171.76,-0.068,-0.014,0.815,-177.38,1.74,171.76
15:19:54.997,18.43,19.91,29.86,0.015,-0.068,0.814,171.89,-0.068,-0.015,0.814,-178.93,4.24,171.89
15:19:55.332,21.30,22.91,29.85,0.015,-0.068,0.814,171.84,-0.068,-0.015,0.814,-179.01,3.85,171.84
15:19:55.667,20.77,22.10,29.84,0.015,-0.068,0.814,171.87,-0.068,-0.015,0.814,-178.89,4.24,171.87
15:19:56.002,18.94,20.62,29.84,0.015,-0.068,0.814,171.86,-0.068,-0.015,0.814,-178.88,4.09,171.86
15:19:56.337,21.75,23.99,29.87,0.015,-0.068,0.814,171.83,-0.068,-0.015,0.814,-178.75,4.03,171.83
15:19:56.672,18.61,20.85,29.85,0.015,-0.067,0.814,171.85,-0.067,-0.015,0.814,-178.68,4.42,171.85
15:19:57.007,19.71,21.20,29.86,0.014,-0.068,0.815,171.72,-0.068,-0.014,0.815,-177.09,2.25,171.72
15:19:57.342,21.74,23.14,29.85,0.014,-0.068,0.815,171.72,-0.068,-0.014,0.815,-176.96,2.35,171.72
15:19:57.677,17.74,19.11,29.86,0.015,-0.067,0.814,171.85,-0.067,-0.015,0.814,-178.46,4.40,171.85
15:19:58.012,18.79,20.46,29.84,0.015,-0.067,0.814,171.86,-0.067,-0.015,0.814,-178.49,4.40,171.86
15:19:58.347,21.58,22.82,29.85,0.015,-0.067,0.814,171.85,-0.067,-0.015,0.814,-178.53,4.20,171.85
15:19:58.682,18.90,20.45,29.85,0.015,-0.067,0.814,171.85,-0.067,-0.015,0.814,-178.53,4.20,171.85
15:19:59.017,21.45,24.64,29.84,0.015,-0.067,0.814,171.83,-0.067,-0.015,0.814,-178.36,4.27,171.83
15:19:59.352,17.72,20.86,29.84,0.015,-0.067,0.814,171.82,-0.067,-0.015,0.814,-178.24,4.09,171.82
15:19:59.687,19.11,20.75,29.86,0.015,-0.067,0.813,171.88,-0.067,-0.015,0.813,-178.45,4.93,171.88
15:20:00.022,18.09,20.17,29.85,0.015,-0.067,0.814,171.88,-0.067,-0.015,0.814,-178.60,4.85,171.88
15:20:00.357,18.32,19.87,29.85,0.015,-0.067,0.814,171.87,-0.067,-0.015,0.814,-178.51,4.92,171.87
15:20:00.692,21.10,22.89,29.85,0.014,-0.068,0.815,171.70,-0.068,-0.014,0.815,-177.03,2.40,171.70
15:20:01.027,20.76,22.16,29.84,0.014,-0.068,0.815,171.70,-0.068,-0.014,0.815,-177.07,2.34,171.70
15:20:01.362,19.40,20.93,29.85,0.014,-0.068,0.815,171.73,-0.068,-0.014,0.815,-177.06,2.58,171.73
15:20:01.697,20.51,23.30,29.85,0.014,-0.068,0.815,171.73,-0.068,-0.014,0.815,-177.07,2.59,171.73
15:20:02.033,18.56,21.00,29.84,0.015,-0.067,0.815,171.78,-0.067,-0.015,0.815,-175.29,0.97,171.78
15:20:02.367,19.29,20.93,29.85,0.015,-0.067,0.815,171.77,-0.067,-0.015,0.815,-175.30,0.94,171.77
15:20:02.702,20.56,21.83,29.86,0.015,-0.067,0.814,171.83,-0.067,-0.015,0.814,-178.42,4.30,171.83
15:20:03.037,17.99,19.46,29.85,0.015,-0.067,0.814,171.83,-0.067,-0.015,0.814,-178.44,4.29,171.83
15:20:03.372,21.54,23.09,29.85,0.015,-0.067,0.814,171.83,-0.067,-0.015,0.814,-178.34,4.43,171.83
15:20:03.707,21.63,22.92,29.85,0.014,-0.068,0.815,171.71,-0.068,-0.014,0.815,-177.10,2.44,171.71
15:20:04.042,19.94,21.44,29.86,0.014,-0.068,0.815,171.70,-0.068,-0.014,0.815,-176.84,2.50,171.70
15:20:04.377,20.88,22.86,29.85,0.014,-0.068,0.815,171.71,-0.068,-0.014,0.815,-177.01,2.41,171.71
15:20:04.712,17.92,21.04,29.83,0.014,-0.068,0.815,171.72,-0.068,-0.014,0.815,-177.03,2.54,171.72
15:20:05.048,19.44,21.11,29.85,0.014,-0.068,0.815,171.74,-0.068,-0.014,0.815,-177.32,2.63,171.74
15:20:05.382,20.99,22.27,29.86,0.014,-0.068,0.815,171.73,-0.068,-0.014,0.815,-177.29,2.48,171.73
15:20:05.717,18.05,19.53,29.85,0.014,-0.068,0.815,171.73,-0.068,-0.014,0.815,-177.26,2.49,171.73
15:20:06.053,26.84,28.68,29.84,0.014,-0.068,0.815,171.72,-0.068,-0.014,0.815,-177.38,2.36,171.72
15:20:06.388,20.34,21.72,29.85,0.015,-0.067,0.814,171.85,-0.067,-0.015,0.814,-178.59,4.67,171.85
15:20:06.723,18.94,20.45,29.86,0.015,-0.067,0.814,171.85,-0.067,-0.015,0.814,-178.53,4.51,171.85
15:20:07.058,19.32,20.93,29.85,0.015,-0.067,0.814,171.86,-0.067,-0.015,0.814,-178.53,4.51,171.86
15:20:07.392,18.34,21.42,29.86,0.015,-0.067,0.814,171.83,-0.067,-0.015,0.814,-178.39,4.59,171.83
15:20:07.729,19.62,21.40,29.69,0.015,-0.067,0.814,171.83,-0.067,-0.015,0.814,-178.47,4.57,171.83
15:20:08.064,20.39,21.63,29.85,0.015,-0.067,0.814,171.82,-0.067,-0.015,0.814,-178.51,4.47,171.82
15:20:08.399,19.88,21.85,29.86,0.014,-0.068,0.815,171.70,-0.068,-0.014,0.815,-177.04,2.27,171.70
15:20:08.734,22.19,23.76,29.85,0.014,-0.068,0.815,171.73,-0.068,-0.014,0.815,-177.12,2.17,171.73
15:20:09.069,21.51,23.39,29.87,0.014,-0.068,0.815,171.73,-0.068,-0.014,0.815,-177.19,1.85,171.73
15:20:09.404,18.92,20.53,29.86,0.014,-0.068,0.815,171.74,-0.068,-0.014,0.815,-177.23,1.62,171.74
15:20:09.739,22.52,23.86,29.84,0.014,-0.068,0.815,171.77,-0.068,-0.014,0.815,-177.67,1.55,171.77
15:20:10.074,19.20,21.60,29.85,0.014,-0.068,0.815,171.80,-0.068,-0.014,0.815,-177.52,1.32,171.80
15:20:10.409,21.12,22.77,29.86,0.014,-0.068,0.815,171.80,-0.068,-0.014,0.815,-177.59,1.41,171.80
15:20:10.744,21.00,22.24,29.85,0.014,-0.068,0.815,171.81,-0.068,-0.014,0.815,-177.51,1.27,171.81
15:20:11.079,18.89,20.46,29.85,0.014,-0.068,0.814,171.82,-0.068,-0.014,0.814,-177.20,1.20,171.82
15:20:11.414,20.08,21.71,29.84,0.014,-0.068,0.813,171.95,-0.068,-0.014,0.813,178.81,3.64,171.95
15:20:11.749,19.71,21.54,29.86,0.014,-0.068,0.813,171.96,-0.068,-0.014,0.813,178.65,3.66,171.96
15:20:12.084,20.93,22.40,29.84,0.014,-0.068,0.812,171.94,-0.068,-0.014,0.812,178.75,3.46,171.94
15:20:12.419,20.01,21.25,29.85,0.014,-0.068,0.812,171.95,-0.068,-0.014,0.812,178.68,3.62,171.95
15:20:12.754,18.57,19.99,29.85,0.014,-0.068,0.812,171.96,-0.068,-0.014,0.812,178.68,3.64,171.96
15:20:13.089,20.94,22.48,29.86,0.014,-0.068,0.812,171.95,-0.068,-0.014,0.812,178.64,3.69,171.95
15:20:13.424,20.61,21.94,29.85,0.014,-0.068,0.812,171.95,-0.068,-0.014,0.812,178.53,3.42,171.95
15:20:13.759,19.02,20.58,29.84,0.014,-0.068,0.814,171.81,-0.068,-0.014,0.814,-177.09,0.88,171.81
15:20:14.094,21.01,22.73,29.84,0.014,-0.068,0.812,171.94,-0.068,-0.014,0.812,178.49,3.37,171.94
15:20:14.429,20.06,21.89,29.87,0.014,-0.068,0.813,171.94,-0.068,-0.014,0.813,178.42,3.36,171.94
15:20:14.764,18.89,20.39,29.84,0.014,-0.068,0.813,171.93,-0.068,-0.014,0.813,178.51,3.49,171.93
15:20:15.099,20.03,21.37,29.85,0.014,-0.068,0.813,171.94,-0.068,-0.014,0.813,178.44,3.62,171.94
15:20:15.434,19.37,20.87,29.85,0.014,-0.068,0.812,171.92,-0.068,-0.014,0.812,178.47,3.47,171.92
15:20:15.772,19.68,21.33,29.60,0.014,-0.068,0.812,171.91,-0.068,-0.014,0.812,178.57,3.42,171.91
15:20:16.107,22.39,23.77,29.85,0.014,-0.068,0.812,171.92,-0.068,-0.014,0.812,178.61,3.55,171.92
15:20:16.442,19.55,21.08,29.86,0.014,-0.068,0.812,171.92,-0.068,-0.014,0.812,178.84,3.77,171.92
15:20:16.777,21.78,24.43,29.84,0.014,-0.068,0.812,171.93,-0.068,-0.014,0.812,178.71,3.82,171.93
15:20:17.112,17.79,20.95,29.84,0.014,-0.068,0.812,171.95,-0.068,-0.014,0.812,177.97,3.55,171.95
15:20:17.447,20.64,22.29,29.85,0.014,-0.068,0.812,171.93,-0.068,-0.014,0.812,178.28,3.54,171.93
15:20:17.782,19.92,21.22,29.85,0.014,-0.068,0.812,171.94,-0.068,-0.014,0.812,178.36,3.61,171.94
15:20:18.117,20.14,21.69,29.85,0.014,-0.068,0.813,171.93,-0.068,-0.014,0.813,178.81,3.54,171.93
15:20:18.452,19.64,21.16,29.84,0.014,-0.068,0.813,171.93,-0.068,-0.014,0.813,178.91,3.58,171.93
15:20:18.787,24.07,25.56,29.85,0.014,-0.068,0.813,171.93,-0.068,-0.014,0.813,178.77,3.61,171.93
15:20:19.122,19.01,20.73,29.86,0.014,-0.068,0.812,171.92,-0.068,-0.014,0.812,178.82,3.46,171.92
15:20:19.457,21.49,24.19,29.85,0.014,-0.068,0.813,171.92,-0.068,-0.014,0.813,179.08,3.58,171.92
15:20:19.792,18.36,21.13,29.84,0.014,-0.068,0.813,171.90,-0.068,-0.014,0.813,179.25,3.58,171.90
15:20:20.130,20.91,22.62,29.66,0.014,-0.068,0.813,171.89,-0.068,-0.014,0.813,179.49,3.61,171.89
15:20:20.465,23.99,26.34,29.85,0.014,-0.068,0.813,171.89,-0.068,-0.014,0.813,179.67,3.59,171.89
15:20:20.800,18.13,19.67,29.84,0.015,-0.068,0.813,171.87,-0.068,-0.015,0.813,179.87,4.12,171.87
15:20:21.135,20.07,21.74,29.81,0.015,-0.068,0.813,171.86,-0.068,-0.015,0.813,-179.94,3.89,171.86
15:20:21.470,20.28,22.31,29.85,0.015,-0.068,0.813,171.86,-0.068,-0.015,0.813,-179.58,3.85,171.86
15:20:21.806,18.77,20.34,29.81,0.015,-0.068,0.814,171.84,-0.068,-0.015,0.814,-179.58,3.41,171.84
15:20:22.141,19.29,20.63,29.84,0.015,-0.068,0.814,171.84,-0.068,-0.015,0.814,-179.52,3.43,171.84
15:20:22.476,18.53,20.02,29.86,0.015,-0.068,0.813,171.85,-0.068,-0.015,0.813,-179.41,3.50,171.85
15:20:22.811,18.87,20.70,29.85,0.015,-0.068,0.813,171.84,-0.068,-0.015,0.813,-179.39,3.50,171.84
15:20:23.146,20.70,22.01,29.85,0.015,-0.068,0.813,171.84,-0.068,-0.015,0.813,-179.42,4.18,171.84
15:20:23.481,17.68,19.14,29.85,0.015,-0.068,0.814,171.84,-0.068,-0.015,0.814,-179.31,3.95,171.84
15:20:23.816,21.71,23.81,29.85,0.015,-0.068,0.813,171.83,-0.068,-0.015,0.813,-178.97,4.05,171.83
15:20:24.151,20.46,22.92,29.84,0.015,-0.068,0.814,171.83,-0.068,-0.015,0.814,-178.99,3.78,171.83
15:20:24.486,18.89,20.60,29.85,0.015,-0.068,0.814,171.83,-0.068,-0.015,0.814,-179.00,3.77,171.83
15:20:24.821,22.00,23.24,29.84,0.015,-0.068,0.814,171.83,-0.068,-0.015,0.814,-179.08,3.77,171.83
15:20:25.156,18.70,20.10,29.86,0.015,-0.068,0.814,171.83,-0.068,-0.015,0.814,-179.17,3.78,171.83
15:20:25.491,20.56,22.09,29.85,0.015,-0.068,0.815,171.69,-0.068,-0.015,0.815,-176.99,1.59,171.69
15:20:25.826,21.25,22.63,29.85,0.015,-0.068,0.815,171.67,-0.068,-0.015,0.815,-176.97,1.69,171.67
15:20:26.161,19.56,21.18,29.84,0.015,-0.068,0.813,171.83,-0.068,-0.015,0.813,-178.94,4.34,171.83
15:20:26.496,19.76,21.34,29.85,0.015,-0.068,0.814,171.81,-0.068,-0.015,0.814,-179.03,4.00,171.81
15:20:26.831,18.72,21.00,29.86,0.015,-0.068,0.814,171.82,-0.068,-0.015,0.814,-178.98,4.13,171.82
15:20:27.166,18.82,20.38,29.85,0.015,-0.068,0.814,171.83,-0.068,-0.015,0.814,-178.89,4.30,171.83
15:20:27.501,21.96,23.30,29.84,0.015,-0.067,0.814,171.82,-0.067,-0.015,0.814,-178.86,4.36,171.82
15:20:27.836,17.76,19.25,29.85,0.015,-0.067,0.813,171.84,-0.067,-0.015,0.813,-178.70,4.87,171.84
15:20:28.171,19.86,21.51,29.85,0.014,-0.068,0.815,171.70,-0.068,-0.014,0.815,-177.05,2.23,171.70
15:20:28.506,22.34,23.63,29.85,0.014,-0.068,0.815,171.71,-0.068,-0.014,0.815,-177.00,2.50,171.71
15:20:28.841,25.15,27.22,29.85,0.014,-0.068,0.815,171.71,-0.068,-0.014,0.815,-177.07,2.48,171.71
15:20:29.176,20.57,22.94,29.85,0.014,-0.068,0.815,171.70,-0.068,-0.014,0.815,-177.10,2.66,171.70
15:20:29.511,19.68,21.82,29.85,0.014,-0.068,0.815,171.72,-0.068,-0.014,0.815,-177.02,2.66,171.72
15:20:29.846,19.10,20.65,29.85,0.016,-0.064,0.802,172.93,-0.064,-0.016,0.802,-177.17,17.05,172.93
15:20:30.181,19.36,20.76,29.83,0.014,-0.068,0.815,171.72,-0.068,-0.014,0.815,-177.03,2.34,171.72
15:20:30.516,17.89,19.40,29.86,0.014,-0.068,0.815,171.72,-0.068,-0.014,0.815,-177.03,2.34,171.72
15:20:30.851,20.09,21.74,29.85,0.014,-0.068,0.815,171.73,-0.068,-0.014,0.815,-177.00,2.38,171.73
15:20:31.186,21.95,23.25,29.85,0.014,-0.068,0.815,171.74,-0.068,-0.014,0.815,-177.08,2.33,171.74
15:20:31.522,18.81,20.35,29.83,0.016,-0.064,0.802,172.92,-0.064,-0.016,0.802,-177.42,16.94,172.92
15:20:31.857,19.85,22.35,29.86,0.014,-0.068,0.815,171.76,-0.068,-0.014,0.815,-177.22,2.10,171.76
15:20:32.192,19.05,21.46,29.84,0.016,-0.064,0.801,172.94,-0.064,-0.016,0.801,-177.27,17.00,172.94
15:20:32.527,21.68,23.19,29.86,0.014,-0.068,0.815,171.74,-0.068,-0.014,0.815,-176.97,2.11,171.74
15:20:32.862,20.53,21.93,29.84,0.014,-0.068,0.815,171.73,-0.068,-0.014,0.815,-176.98,2.17,171.73
15:20:33.197,17.94,19.45,29.86,0.016,-0.064,0.801,172.93,-0.064,-0.016,0.801,-177.15,16.96,172.93
15:20:33.532,19.86,21.52,29.84,0.016,-0.064,0.801,172.93,-0.064,-0.016,0.801,-177.15,16.96,172.93
15:20:33.867,21.88,23.13,29.85,0.014,-0.068,0.815,171.75,-0.068,-0.014,0.815,-177.18,2.31,171.75
15:20:34.202,19.11,20.65,29.86,0.014,-0.068,0.815,171.76,-0.068,-0.014,0.815,-177.16,2.21,171.76
15:20:34.536,26.43,29.70,29.86,0.014,-0.068,0.815,171.76,-0.068,-0.014,0.815,-177.17,2.22,171.76
15:20:34.872,19.30,24.65,29.83,0.016,-0.064,0.801,172.94,-0.064,-0.016,0.801,-177.27,17.04,172.94
15:20:35.207,22.07,23.72,29.85,0.016,-0.064,0.801,172.95,-0.064,-0.016,0.801,-177.18,16.87,172.95
15:20:35.542,19.46,20.75,29.85,0.016,-0.064,0.801,172.89,-0.064,-0.016,0.801,-176.85,16.63,172.89
15:20:35.877,18.53,19.93,29.85,0.016,-0.064,0.803,173.01,-0.064,-0.016,0.803,-177.59,17.30,173.01
15:20:36.212,19.68,21.33,29.85,0.014,-0.068,0.815,171.75,-0.068,-0.014,0.815,-177.10,2.17,171.75
15:20:36.547,20.86,22.10,29.84,0.014,-0.068,0.815,171.75,-0.068,-0.014,0.815,-176.97,2.16,171.75
15:20:36.882,19.02,20.54,29.85,0.014,-0.068,0.815,171.75,-0.068,-0.014,0.815,-177.01,2.09,171.75
15:20:37.217,19.65,21.45,29.85,0.014,-0.068,0.815,171.75,-0.068,-0.014,0.815,-177.06,1.98,171.75
15:20:37.552,18.15,21.03,29.84,0.014,-0.068,0.815,171.75,-0.068,-0.014,0.815,-177.18,2.04,171.75
15:20:37.887,19.19,20.83,29.85,0.014,-0.068,0.815,171.73,-0.068,-0.014,0.815,-177.23,1.80,171.73
15:20:38.222,17.86,19.19,29.86,0.014,-0.068,0.815,171.73,-0.068,-0.014,0.815,-177.16,1.86,171.73
15:20:38.557,18.35,19.76,29.85,0.014,-0.068,0.815,171.75,-0.068,-0.014,0.815,-177.07,1.91,171.75
15:20:38.892,26.19,27.70,29.84,0.014,-0.068,0.815,171.76,-0.068,-0.014,0.815,-177.05,2.05,171.76
15:20:39.227,20.22,21.57,29.84,0.015,-0.068,0.813,171.87,-0.068,-0.015,0.813,-179.34,4.17,171.87
15:20:39.562,19.35,21.01,29.86,0.015,-0.068,0.813,171.88,-0.068,-0.015,0.813,-179.67,4.23,171.88
15:20:39.897,21.53,23.83,29.85,0.015,-0.068,0.813,171.86,-0.068,-0.015,0.813,-179.83,4.10,171.86
15:20:40.232,18.85,20.99,29.85,0.015,-0.068,0.813,171.87,-0.068,-0.015,0.813,179.94,3.98,171.87
15:20:40.567,19.75,21.27,29.86,0.015,-0.068,0.813,171.88,-0.068,-0.015,0.813,-179.87,3.84,171.88
15:20:40.902,21.19,22.62,29.85,0.015,-0.068,0.813,171.86,-0.068,-0.015,0.813,-179.99,4.00,171.86
15:20:41.237,17.74,19.24,29.85,0.015,-0.068,0.813,171.85,-0.068,-0.015,0.813,-179.76,3.94,171.85
15:20:41.572,19.46,21.12,29.84,0.015,-0.068,0.813,171.86,-0.068,-0.015,0.813,-179.55,3.89,171.86
15:20:41.907,21.37,22.67,29.84,0.015,-0.068,0.813,171.85,-0.068,-0.015,0.813,-179.68,3.82,171.85
15:20:42.242,19.04,20.55,29.83,0.015,-0.068,0.813,171.86,-0.068,-0.015,0.813,-179.89,3.91,171.86
15:20:42.578,19.92,21.46,29.83,0.015,-0.068,0.813,171.86,-0.068,-0.015,0.813,-179.89,3.90,171.86
15:20:42.913,18.21,20.16,29.84,0.015,-0.068,0.813,171.87,-0.068,-0.015,0.813,-179.96,3.79,171.87
15:20:43.248,26.64,29.05,29.86,0.015,-0.068,0.813,171.87,-0.068,-0.015,0.813,-179.92,3.78,171.87
15:20:43.583,21.27,22.60,29.86,0.015,-0.068,0.813,171.86,-0.068,-0.015,0.813,-179.99,3.91,171.86
15:20:43.918,17.95,19.52,29.85,0.015,-0.068,0.813,171.86,-0.068,-0.015,0.813,179.86,3.92,171.86
15:20:44.253,21.55,23.22,29.84,0.015,-0.068,0.814,171.73,-0.068,-0.015,0.814,-177.20,1.00,171.73
15:20:44.588,21.69,23.28,29.84,0.014,-0.068,0.815,171.74,-0.068,-0.014,0.815,-177.23,1.27,171.74
15:20:44.923,19.19,20.67,29.85,0.014,-0.068,0.815,171.75,-0.068,-0.014,0.815,-177.03,1.49,171.75
15:20:45.258,23.13,24.60,29.84,0.014,-0.068,0.815,171.75,-0.068,-0.014,0.815,-177.16,1.53,171.75
15:20:45.593,27.28,28.87,29.86,0.015,-0.068,0.813,171.87,-0.068,-0.015,0.813,-179.86,3.88,171.87
15:20:45.928,19.69,21.34,29.84,0.015,-0.068,0.815,171.70,-0.068,-0.015,0.815,-177.12,1.46,171.70
15:20:46.263,20.26,21.50,29.86,0.015,-0.068,0.815,171.68,-0.068,-0.015,0.815,-177.13,1.61,171.68
15:20:46.598,17.96,19.44,29.86,0.015,-0.067,0.814,171.84,-0.067,-0.015,0.814,-179.00,4.30,171.84
15:20:46.933,22.68,24.09,29.85,0.015,-0.068,0.814,171.78,-0.068,-0.015,0.814,-178.75,3.72,171.78
15:20:47.268,21.91,23.42,29.85,0.015,-0.068,0.814,171.79,-0.068,-0.015,0.814,-178.60,3.74,171.79
15:20:47.603,18.55,20.17,29.86,0.015,-0.068,0.814,171.79,-0.068,-0.015,0.814,-178.57,3.68,171.79
15:20:47.938,19.12,20.43,29.84,0.015,-0.068,0.814,171.81,-0.068,-0.015,0.814,-178.87,3.94,171.81
15:20:48.273,17.41,19.96,29.83,0.015,-0.068,0.814,171.83,-0.068,-0.015,0.814,-179.13,4.26,171.83
15:20:48.608,19.60,21.26,29.85,0.015,-0.068,0.814,171.84,-0.068,-0.015,0.814,-178.97,4.51,171.84
15:20:48.943,21.14,22.38,29.86,0.015,-0.068,0.814,171.84,-0.068,-0.015,0.814,-178.92,4.35,171.84
15:20:49.278,19.50,21.07,29.85,0.015,-0.068,0.814,171.84,-0.068,-0.015,0.814,-179.08,4.24,171.84
15:20:49.613,20.31,21.89,29.83,0.015,-0.068,0.813,171.83,-0.068,-0.015,0.813,-179.05,3.94,171.83
15:20:49.948,20.06,21.73,29.85,0.014,-0.068,0.815,171.73,-0.068,-0.014,0.815,-176.96,1.72,171.73
15:20:50.283,19.05,20.66,29.86,0.014,-0.068,0.815,171.73,-0.068,-0.014,0.815,-176.93,1.80,171.73
15:20:50.618,20.13,21.41,29.84,0.014,-0.068,0.815,171.75,-0.068,-0.014,0.815,-176.93,1.98,171.75
15:20:50.953,18.49,21.34,29.84,0.014,-0.068,0.815,171.74,-0.068,-0.014,0.815,-176.92,2.39,171.74
15:20:51.288,19.36,20.87,29.85,0.014,-0.068,0.815,171.74,-0.068,-0.014,0.815,-177.11,2.34,171.74
15:20:51.623,18.71,20.58,29.86,0.014,-0.068,0.815,171.74,-0.068,-0.014,0.815,-177.11,2.33,171.74
15:20:51.958,18.17,19.85,29.84,0.014,-0.068,0.815,171.74,-0.068,-0.014,0.815,-176.94,2.40,171.74
15:20:52.294,20.95,22.67,29.83,0.014,-0.068,0.815,171.74,-0.068,-0.014,0.815,-176.98,2.52,171.74
15:20:52.628,22.75,24.28,29.86,0.014,-0.068,0.815,171.74,-0.068,-0.014,0.815,-176.95,2.53,171.74
15:20:52.963,19.02,20.49,29.86,0.014,-0.068,0.815,171.74,-0.068,-0.014,0.815,-176.94,2.39,171.74
15:20:53.299,19.54,20.91,29.84,0.014,-0.068,0.815,171.73,-0.068,-0.014,0.815,-177.02,2.32,171.73
15:20:53.634,17.69,20.15,29.84,0.014,-0.068,0.815,171.74,-0.068,-0.014,0.815,-177.11,2.31,171.74
15:20:53.969,20.29,21.96,29.85,0.014,-0.068,0.815,171.74,-0.068,-0.014,0.815,-177.16,2.30,171.74
15:20:54.304,29.38,30.70,29.86,0.014,-0.068,0.815,171.71,-0.068,-0.014,0.815,-177.04,2.33,171.71
15:20:54.638,17.81,19.37,29.85,0.014,-0.068,0.815,171.71,-0.068,-0.014,0.815,-177.02,2.31,171.71
15:20:54.974,21.13,22.85,29.83,0.014,-0.068,0.815,171.70,-0.068,-0.014,0.815,-177.03,2.29,171.70
15:20:55.309,24.97,26.85,29.83,0.015,-0.067,0.814,171.84,-0.067,-0.015,0.814,-178.50,4.54,171.84
15:20:55.644,18.76,20.25,29.86,0.015,-0.067,0.814,171.82,-0.067,-0.015,0.814,-178.54,4.32,171.82
15:20:55.979,19.36,20.67,29.83,0.015,-0.067,0.814,171.82,-0.067,-0.015,0.814,-178.55,4.30,171.82
15:20:56.314,18.34,20.27,29.84,0.015,-0.067,0.814,171.83,-0.067,-0.015,0.814,-178.72,4.49,171.83
15:20:56.649,19.75,21.27,29.86,0.015,-0.068,0.814,171.83,-0.068,-0.015,0.814,-178.87,4.46,171.83
15:20:56.984,31.98,33.31,29.85,0.015,-0.068,0.814,171.84,-0.068,-0.015,0.814,-178.94,4.41,171.84
15:20:57.319,19.10,20.66,29.85,0.015,-0.067,0.814,171.84,-0.067,-0.015,0.814,-178.94,4.42,171.84
15:20:57.654,25.22,27.75,29.83,0.015,-0.068,0.814,171.86,-0.068,-0.015,0.814,-179.48,4.34,171.86
15:20:57.989,22.83,24.71,29.86,0.014,-0.068,0.815,171.76,-0.068,-0.014,0.815,-177.24,1.68,171.76
15:20:58.324,19.78,21.41,29.86,0.014,-0.068,0.815,171.77,-0.068,-0.014,0.815,-177.43,1.54,171.77
15:20:58.659,21.05,22.29,29.84,0.014,-0.068,0.815,171.77,-0.068,-0.014,0.815,-177.31,1.50,171.77
15:20:58.994,17.76,20.51,29.86,0.014,-0.068,0.814,171.74,-0.068,-0.014,0.814,-177.30,1.21,171.74
15:20:59.330,20.02,21.76,29.79,0.014,-0.068,0.813,171.90,-0.068,-0.014,0.813,178.77,3.70,171.90
15:20:59.665,22.64,23.88,29.86,0.014,-0.068,0.813,171.90,-0.068,-0.014,0.813,178.61,3.66,171.90
15:21:00.000,19.35,21.21,29.85,0.014,-0.068,0.813,171.92,-0.068,-0.014,0.813,178.42,3.74,171.92
15:21:00.335,20.65,22.17,29.85,0.014,-0.068,0.814,171.79,-0.068,-0.014,0.814,-177.08,1.08,171.79
15:21:00.670,19.13,21.23,29.86,0.014,-0.068,0.812,171.94,-0.068,-0.014,0.812,178.73,3.88,171.94
15:21:01.005,19.56,21.17,29.84,0.014,-0.068,0.813,171.91,-0.068,-0.014,0.813,178.85,3.45,171.91
15:21:01.340,21.04,22.67,29.84,0.014,-0.068,0.813,171.90,-0.068,-0.014,0.813,178.97,3.66,171.90
15:21:01.675,17.66,19.03,29.85,0.014,-0.068,0.813,171.90,-0.068,-0.014,0.813,179.16,3.80,171.90
15:21:02.010,20.13,21.72,29.85,0.014,-0.068,0.813,171.90,-0.068,-0.014,0.813,179.34,3.78,171.90
15:21:02.345,21.47,22.81,29.85,0.014,-0.068,0.813,171.89,-0.068,-0.014,0.813,179.25,3.50,171.89
15:21:02.680,19.51,21.09,29.83,0.014,-0.068,0.813,171.88,-0.068,-0.014,0.813,179.52,3.92,171.88
15:21:03.015,22.58,24.26,29.82,0.015,-0.068,0.813,171.89,-0.068,-0.015,0.813,179.52,4.27,171.89
15:21:03.350,19.09,21.25,29.85,0.014,-0.068,0.813,171.88,-0.068,-0.014,0.813,178.98,3.79,171.88
15:21:03.685,19.22,20.88,29.85,0.014,-0.068,0.813,171.90,-0.068,-0.014,0.813,179.05,4.20,171.90
15:21:04.021,21.48,22.72,29.84,0.014,-0.068,0.813,171.89,-0.068,-0.014,0.813,179.33,4.09,171.89
15:21:04.356,18.53,19.92,29.85,0.014,-0.068,0.814,171.76,-0.068,-0.014,0.814,-177.34,1.23,171.76
15:21:04.690,25.35,26.88,29.85,0.014,-0.068,0.815,171.76,-0.068,-0.014,0.815,-177.39,1.36,171.76
15:21:05.025,19.98,21.44,29.85,0.014,-0.068,0.813,171.88,-0.068,-0.014,0.813,179.41,3.45,171.88
15:21:05.360,19.45,21.01,29.85,0.014,-0.068,0.813,171.88,-0.068,-0.014,0.813,179.42,3.45,171.88
15:21:05.696,22.91,24.55,29.83,0.014,-0.068,0.813,171.87,-0.068,-0.014,0.813,179.73,3.74,171.87
15:21:06.031,18.24,20.02,29.86,0.014,-0.068,0.813,171.88,-0.068,-0.014,0.813,179.75,3.97,171.88
15:21:06.366,20.27,21.98,29.86,0.014,-0.068,0.813,171.86,-0.068,-0.014,0.813,179.81,4.02,171.86
15:21:06.700,22.77,24.03,29.86,0.014,-0.068,0.813,171.87,-0.068,-0.014,0.813,-179.89,4.10,171.87
15:21:07.035,20.55,21.93,29.85,0.015,-0.068,0.813,171.85,-0.068,-0.015,0.813,-179.73,3.85,171.85
15:21:07.370,19.76,21.33,29.85,0.015,-0.068,0.813,171.85,-0.068,-0.015,0.813,-179.56,4.14,171.85
15:21:07.705,21.22,22.61,29.85,0.015,-0.068,0.815,171.70,-0.068,-0.015,0.815,-176.90,1.54,171.70
15:21:08.041,17.91,19.49,29.83,0.014,-0.068,0.815,171.69,-0.068,-0.014,0.815,-177.13,1.57,171.69
15:21:08.376,22.03,25.55,29.84,0.015,-0.068,0.815,171.69,-0.068,-0.015,0.815,-177.04,1.54,171.69
15:21:08.711,19.84,22.05,29.85,0.014,-0.068,0.815,171.73,-0.068,-0.014,0.815,-176.99,1.81,171.73
15:21:09.046,20.49,22.07,29.85,0.015,-0.068,0.813,171.86,-0.068,-0.015,0.813,-179.20,4.56,171.86
15:21:09.381,23.65,24.98,29.85,0.015,-0.068,0.813,171.86,-0.068,-0.015,0.813,-179.32,4.51,171.86
15:21:09.716,18.87,21.39,29.86,0.015,-0.068,0.815,171.72,-0.068,-0.015,0.815,-176.92,1.69,171.72
15:21:10.051,20.20,21.91,29.86,0.014,-0.068,0.815,171.72,-0.068,-0.014,0.815,-176.96,1.72,171.72
15:21:10.386,21.52,22.82,29.85,0.014,-0.068,0.815,171.71,-0.068,-0.014,0.815,-177.05,1.71,171.71
15:21:10.721,18.89,20.35,29.84,0.015,-0.068,0.815,171.71,-0.068,-0.015,0.815,-177.01,1.71,171.71
15:21:11.056,21.71,23.22,29.86,0.015,-0.068,0.815,171.72,-0.068,-0.015,0.815,-177.18,1.35,171.72
15:21:11.391,21.42,23.78,29.85,0.015,-0.068,0.815,171.71,-0.068,-0.015,0.815,-177.00,1.41,171.71
15:21:11.726,19.30,20.99,29.85,0.015,-0.068,0.815,171.71,-0.068,-0.015,0.815,-177.00,1.38,171.71
15:21:12.061,24.96,27.45,29.84,0.015,-0.068,0.815,171.71,-0.068,-0.015,0.815,-177.00,1.38,171.71
15:21:12.396,17.89,19.29,29.86,0.015,-0.068,0.814,171.72,-0.068,-0.015,0.814,-176.96,1.30,171.72
15:21:12.731,20.24,21.77,29.85,0.015,-0.068,0.814,171.72,-0.068,-0.015,0.814,-176.96,1.30,171.72
15:21:13.066,20.64,22.04,29.85,0.015,-0.068,0.814,171.72,-0.068,-0.015,0.814,-176.96,1.26,171.72
15:21:13.401,19.33,20.89,29.85,0.014,-0.068,0.815,171.72,-0.068,-0.014,0.815,-177.22,1.26,171.72
15:21:13.736,20.45,22.09,29.84,0.015,-0.068,0.815,171.70,-0.068,-0.015,0.815,-177.01,1.46,171.70
15:21:14.071,19.50,21.72,29.85,0.015,-0.068,0.815,171.70,-0.068,-0.015,0.815,-177.00,1.48,171.70
15:21:14.406,18.80,20.48,29.86,0.014,-0.068,0.815,171.70,-0.068,-0.014,0.815,-176.88,1.76,171.70
15:21:14.741,19.31,20.63,29.83,0.015,-0.068,0.813,171.85,-0.068,-0.015,0.813,-178.59,4.44,171.85
15:21:15.076,18.33,19.81,29.86,0.014,-0.068,0.815,171.72,-0.068,-0.014,0.815,-176.88,1.85,171.72
15:21:15.411,21.24,22.90,29.85,0.014,-0.068,0.815,171.72,-0.068,-0.014,0.815,-176.70,1.87,171.72
15:21:15.746,20.82,22.11,29.85,0.014,-0.068,0.815,171.74,-0.068,-0.014,0.815,-177.19,2.04,171.74
15:21:16.081,19.43,20.89,29.85,0.014,-0.068,0.815,171.75,-0.068,-0.014,0.815,-177.03,2.03,171.75
15:21:16.416,22.00,23.88,29.85,0.014,-0.068,0.815,171.75,-0.068,-0.014,0.815,-176.98,2.02,171.75
15:21:16.751,19.37,21.81,29.85,0.014,-0.068,0.815,171.75,-0.068,-0.014,0.815,-176.96,2.07,171.75
15:21:17.086,19.17,20.84,29.84,0.014,-0.068,0.815,171.72,-0.068,-0.014,0.815,-177.09,2.00,171.72
15:21:17.421,20.24,21.48,29.84,0.015,-0.068,0.814,171.87,-0.068,-0.015,0.814,-179.04,4.34,171.87
15:21:17.756,17.94,19.32,29.86,0.015,-0.068,0.813,171.87,-0.068,-0.015,0.813,-179.17,4.20,171.87
15:21:18.091,23.29,24.93,29.85,0.014,-0.068,0.815,171.75,-0.068,-0.014,0.815,-177.25,1.58,171.75
15:21:18.426,20.45,21.81,29.86,0.014,-0.068,0.815,171.77,-0.068,-0.014,0.815,-177.20,1.84,171.77
15:21:18.761,19.23,20.87,29.86,0.014,-0.068,0.814,171.90,-0.068,-0.014,0.814,-179.36,4.17,171.90
15:21:19.096,22.80,25.04,29.86,0.014,-0.068,0.813,171.90,-0.068,-0.014,0.813,-179.48,4.01,171.90
15:21:19.431,19.31,21.63,29.86,0.014,-0.068,0.815,171.75,-0.068,-0.014,0.815,-177.09,1.70,171.75
15:21:19.766,19.29,21.00,29.84,0.014,-0.068,0.815,171.75,-0.068,-0.014,0.815,-177.06,1.67,171.75
15:21:20.101,19.36,20.66,29.84,0.014,-0.068,0.815,171.75,-0.068,-0.014,0.815,-177.05,1.77,171.75
15:21:20.436,20.89,22.89,29.85,0.014,-0.068,0.815,171.75,-0.068,-0.014,0.815,-177.08,1.71,171.75
15:21:20.771,21.51,23.03,29.84,0.014,-0.068,0.815,171.76,-0.068,-0.014,0.815,-177.21,1.69,171.76
15:21:21.106,20.17,21.55,29.85,0.015,-0.068,0.814,171.89,-0.068,-0.015,0.814,-179.23,4.10,171.89
15:21:21.441,18.99,20.64,29.84,0.015,-0.068,0.814,171.87,-0.068,-0.015,0.814,-178.86,3.99,171.87
15:21:21.776,20.58,22.41,29.86,0.015,-0.068,0.814,171.87,-0.068,-0.015,0.814,-178.91,4.32,171.87
15:21:22.111,22.12,24.51,29.86,0.015,-0.068,0.814,171.87,-0.068,-0.015,0.814,-178.76,4.36,171.87
15:21:22.446,20.06,21.74,29.84,0.015,-0.068,0.814,171.87,-0.068,-0.015,0.814,-178.75,4.31,171.87
15:21:22.781,21.32,22.55,29.84,0.015,-0.067,0.813,171.91,-0.067,-0.015,0.813,-178.65,4.97,171.91
15:21:23.116,18.97,20.46,29.86,0.015,-0.068,0.814,171.90,-0.068,-0.015,0.814,-178.76,4.67,171.90
15:21:23.451,20.93,22.58,29.85,0.015,-0.067,0.814,171.91,-0.067,-0.015,0.814,-178.55,4.72,171.91
15:21:23.786,20.52,21.79,29.85,0.015,-0.067,0.814,171.91,-0.067,-0.015,0.814,-178.56,4.63,171.91
15:21:24.122,19.59,21.34,29.82,0.015,-0.067,0.813,171.91,-0.067,-0.015,0.813,-178.67,4.91,171.91
15:21:24.457,18.74,22.38,29.85,0.014,-0.068,0.815,171.76,-0.068,-0.014,0.815,-176.94,2.28,171.76
15:21:24.792,18.75,21.01,29.85,0.015,-0.067,0.814,171.91,-0.067,-0.015,0.814,-178.73,4.88,171.91
15:21:25.127,19.15,20.65,29.86,0.015,-0.067,0.814,171.91,-0.067,-0.015,0.814,-178.58,5.00,171.91
15:21:25.462,20.47,21.77,29.85,0.015,-0.067,0.814,171.90,-0.067,-0.015,0.814,-178.71,4.64,171.90
15:21:25.796,18.58,19.98,29.86,0.015,-0.067,0.814,171.90,-0.067,-0.015,0.814,-178.62,4.68,171.90
15:21:26.131,19.94,21.47,29.85,0.015,-0.067,0.814,171.90,-0.067,-0.015,0.814,-178.40,4.81,171.90
15:21:26.466,23.97,25.48,29.86,0.015,-0.067,0.814,171.90,-0.067,-0.015,0.814,-178.39,4.81,171.90
15:21:26.801,19.08,20.72,29.85,0.014,-0.068,0.815,171.76,-0.068,-0.014,0.815,-177.11,2.27,171.76
15:21:27.136,20.50,22.17,29.86,0.015,-0.067,0.813,171.91,-0.067,-0.015,0.813,-178.66,5.05,171.91
15:21:27.471,19.05,21.29,29.85,0.014,-0.068,0.815,171.74,-0.068,-0.014,0.815,-177.02,1.98,171.74
15:21:27.807,20.44,22.07,29.83,0.015,-0.068,0.814,171.86,-0.068,-0.015,0.814,-178.49,4.25,171.86
15:21:28.142,19.28,20.60,29.85,0.015,-0.068,0.814,171.86,-0.068,-0.015,0.814,-178.70,4.30,171.86
15:21:28.476,18.28,19.68,29.86,0.015,-0.067,0.814,171.86,-0.067,-0.015,0.814,-178.67,4.32,171.86
15:21:28.812,18.80,20.31,29.85,0.015,-0.068,0.814,171.86,-0.068,-0.015,0.814,-178.47,4.19,171.86
15:21:29.147,21.03,22.36,29.84,0.015,-0.068,0.815,171.71,-0.068,-0.015,0.815,-176.68,2.03,171.71
15:21:29.482,19.34,21.01,29.83,0.014,-0.068,0.815,171.74,-0.068,-0.014,0.815,-176.87,2.17,171.74
15:21:29.817,21.36,23.86,29.83,0.015,-0.067,0.814,171.88,-0.067,-0.015,0.814,-178.31,4.75,171.88
15:21:30.152,19.05,21.33,29.84,0.014,-0.068,0.815,171.73,-0.068,-0.014,0.815,-176.93,2.36,171.73
15:21:30.489,20.72,22.29,29.66,0.014,-0.068,0.815,171.74,-0.068,-0.014,0.815,-177.03,2.21,171.74
15:21:30.824,23.08,24.42,29.86,0.014,-0.068,0.815,171.74,-0.068,-0.014,0.815,-177.06,2.21,171.74
15:21:31.159,19.26,20.81,29.86,0.014,-0.068,0.815,171.75,-0.068,-0.014,0.815,-177.01,2.08,171.75
15:21:31.494,20.82,22.53,29.84,0.014,-0.068,0.815,171.77,-0.068,-0.014,0.815,-177.12,2.16,171.77
15:21:31.829,21.40,22.96,29.85,0.014,-0.068,0.815,171.78,-0.068,-0.014,0.815,-177.52,1.93,171.78
15:21:32.164,20.06,21.55,29.85,0.014,-0.068,0.815,171.78,-0.068,-0.014,0.815,-177.49,1.92,171.78
15:21:32.499,24.46,25.85,29.84,0.016,-0.064,0.802,172.95,-0.064,-0.016,0.802,-177.37,16.94,172.95
15:21:32.834,18.09,19.59,29.85,0.014,-0.068,0.815,171.76,-0.068,-0.014,0.815,-177.04,2.12,171.76
15:21:33.169,19.61,21.39,29.86,0.016,-0.064,0.804,172.95,-0.064,-0.016,0.804,-177.77,16.78,172.95
15:21:33.504,28.35,29.59,29.86,0.014,-0.068,0.815,171.76,-0.068,-0.014,0.815,-177.07,2.04,171.76
15:21:33.839,17.79,19.21,29.85,0.014,-0.068,0.815,171.75,-0.068,-0.014,0.815,-177.14,1.95,171.75
15:21:34.174,19.33,20.90,29.84,0.016,-0.064,0.801,172.96,-0.064,-0.016,0.801,-177.31,17.12,172.96
15:21:34.509,20.48,22.08,29.86,0.016,-0.064,0.801,172.95,-0.064,-0.016,0.801,-177.31,17.05,172.95
15:21:34.844,25.82,27.71,29.86,0.014,-0.068,0.815,171.76,-0.068,-0.014,0.815,-177.15,1.97,171.76
15:21:35.179,19.23,20.57,29.84,0.016,-0.064,0.801,172.94,-0.064,-0.016,0.801,-177.38,17.11,172.94
15:21:35.514,19.50,21.82,29.85,0.016,-0.064,0.801,172.93,-0.064,-0.016,0.801,-177.43,17.17,172.93
15:21:35.849,25.14,26.84,29.85,0.014,-0.068,0.815,171.77,-0.068,-0.014,0.815,-177.77,1.62,171.77
15:21:36.184,20.41,22.05,29.85,0.014,-0.068,0.814,171.73,-0.068,-0.014,0.814,-176.93,1.28,171.73
15:21:36.519,16.83,18.21,29.85,0.014,-0.068,0.814,171.77,-0.068,-0.014,0.814,-177.09,1.48,171.77
15:21:36.854,19.49,21.04,29.85,0.014,-0.068,0.815,171.78,-0.068,-0.014,0.815,-177.03,1.68,171.78
15:21:37.189,18.18,19.80,29.86,0.014,-0.068,0.815,171.75,-0.068,-0.014,0.815,-176.80,1.69,171.75
15:21:37.524,18.55,20.15,29.85,0.016,-0.064,0.802,172.87,-0.064,-0.016,0.802,-177.63,16.79,172.87
15:21:37.860,21.95,23.59,29.82,0.016,-0.064,0.802,172.88,-0.064,-0.016,0.802,-177.49,16.69,172.88
15:21:38.195,19.41,21.39,29.84,0.016,-0.064,0.801,172.90,-0.064,-0.016,0.801,-177.57,17.01,172.90
15:21:38.530,19.61,21.13,29.86,0.014,-0.068,0.815,171.75,-0.068,-0.014,0.815,-176.95,1.98,171.75
15:21:38.865,21.04,22.37,29.79,0.014,-0.068,0.815,171.74,-0.068,-0.014,0.815,-177.16,1.70,171.74
15:21:39.200,19.92,21.47,29.85,0.014,-0.068,0.815,171.76,-0.068,-0.014,0.815,-177.28,1.76,171.76
15:21:39.535,22.16,23.81,29.84,0.014,-0.068,0.815,171.77,-0.068,-0.014,0.815,-177.44,1.69,171.77
15:21:39.871,19.57,21.85,29.85,0.014,-0.068,0.815,171.77,-0.068,-0.014,0.815,-177.38,1.54,171.77
15:21:40.206,19.97,21.65,29.84,0.014,-0.068,0.815,171.77,-0.068,-0.014,0.815,-177.37,1.54,171.77
15:21:40.541,18.68,19.98,29.84,0.014,-0.068,0.815,171.75,-0.068,-0.014,0.815,-177.36,1.62,171.75
15:21:40.876,18.39,19.84,29.85,0.014,-0.068,0.813,171.88,-0.068,-0.014,0.813,-179.72,4.22,171.88
15:21:41.211,20.12,21.64,29.84,0.014,-0.068,0.813,171.88,-0.068,-0.014,0.813,-179.73,4.24,171.88
15:21:41.546,21.30,22.68,29.86,0.014,-0.068,0.813,171.89,-0.068,-0.014,0.813,-179.75,4.26,171.89
15:21:41.881,18.43,20.10,29.85,0.014,-0.068,0.815,171.76,-0.068,-0.014,0.815,-177.37,1.52,171.76
15:21:42.216,22.86,24.50,29.84,0.014,-0.068,0.815,171.76,-0.068,-0.014,0.815,-177.32,1.33,171.76
15:21:42.551,20.24,22.09,29.86,0.014,-0.068,0.815,171.77,-0.068,-0.014,0.815,-177.32,1.34,171.77
15:21:42.886,19.13,20.70,29.86,0.014,-0.068,0.814,171.77,-0.068,-0.014,0.814,-177.35,1.31,171.77
15:21:43.221,19.52,21.49,29.84,0.014,-0.068,0.813,171.89,-0.068,-0.014,0.813,179.19,3.64,171.89
15:21:43.556,18.08,19.54,29.85,0.015,-0.068,0.813,171.87,-0.068,-0.015,0.813,179.61,4.01,171.87
15:21:43.891,21.17,22.83,29.86,0.015,-0.068,0.813,171.87,-0.068,-0.015,0.813,179.74,4.04,171.87
15:21:44.226,19.77,21.12,29.86,0.015,-0.068,0.813,171.87,-0.068,-0.015,0.813,179.84,3.94,171.87
15:21:44.561,19.50,20.94,29.85,0.014,-0.068,0.813,171.87,-0.068,-0.014,0.813,179.55,3.74,171.87
15:21:44.896,22.53,24.05,29.84,0.014,-0.068,0.813,171.88,-0.068,-0.014,0.813,179.05,3.54,171.88
15:21:45.231,19.59,22.00,29.84,0.014,-0.068,0.813,171.88,-0.068,-0.014,0.813,179.01,3.66,171.88
15:21:45.566,19.21,20.89,29.85,0.014,-0.068,0.813,171.88,-0.068,-0.014,0.813,179.05,3.67,171.88
15:21:45.901,19.36,20.69,29.83,0.014,-0.068,0.813,171.87,-0.068,-0.014,0.813,178.87,3.63,171.87
15:21:46.236,18.43,19.92,29.84,0.014,-0.068,0.813,171.86,-0.068,-0.014,0.813,179.44,3.40,171.86
15:21:46.571,20.41,22.07,29.85,0.015,-0.068,0.813,171.85,-0.068,-0.015,0.813,179.71,3.57,171.85
15:21:46.906,24.60,26.22,29.85,0.015,-0.068,0.813,171.84,-0.068,-0.015,0.813,179.74,4.10,171.84
15:21:47.241,18.61,20.14,29.85,0.015,-0.068,0.813,171.85,-0.068,-0.015,0.813,179.58,4.09,171.85
15:21:47.576,19.77,21.42,29.84,0.015,-0.068,0.813,171.85,-0.068,-0.015,0.813,179.59,4.09,171.85
15:21:47.911,19.25,21.70,29.86,0.015,-0.068,0.813,171.85,-0.068,-0.015,0.813,179.85,4.12,171.85
15:21:48.246,19.31,20.99,29.85,0.015,-0.068,0.813,171.82,-0.068,-0.015,0.813,-179.86,3.86,171.82
15:21:48.581,19.51,20.74,29.86,0.015,-0.068,0.813,171.82,-0.068,-0.015,0.813,-179.96,3.87,171.82
15:21:48.916,18.38,19.72,29.86,0.015,-0.068,0.813,171.84,-0.068,-0.015,0.813,179.43,3.69,171.84
15:21:49.251,22.91,25.27,29.85,0.015,-0.068,0.812,171.85,-0.068,-0.015,0.812,179.16,3.86,171.85
15:21:49.586,21.05,22.41,29.85,0.014,-0.068,0.813,171.86,-0.068,-0.014,0.813,179.20,3.66,171.86
15:21:49.921,18.54,20.17,29.84,0.014,-0.068,0.813,171.86,-0.068,-0.014,0.813,179.14,3.66,171.86
15:21:50.257,21.14,22.83,29.83,0.014,-0.068,0.813,171.85,-0.068,-0.014,0.813,179.14,3.59,171.85
15:21:50.591,19.16,21.60,29.86,0.014,-0.068,0.813,171.84,-0.068,-0.014,0.813,179.44,3.68,171.84
15:21:50.926,18.86,20.54,29.85,0.014,-0.068,0.813,171.84,-0.068,-0.014,0.813,179.47,3.68,171.84
15:21:51.262,21.14,22.43,29.84,0.014,-0.068,0.813,171.84,-0.068,-0.014,0.813,179.56,3.72,171.84
15:21:51.596,19.63,21.12,29.86,0.014,-0.068,0.813,171.84,-0.068,-0.014,0.813,179.56,3.72,171.84
15:21:51.932,20.03,21.56,29.84,0.014,-0.068,0.813,171.82,-0.068,-0.014,0.813,179.35,3.31,171.82
15:21:52.267,22.21,23.61,29.86,0.014,-0.068,0.813,171.84,-0.068,-0.014,0.813,179.30,3.44,171.84
15:21:52.602,17.92,19.54,29.85,0.014,-0.068,0.812,171.85,-0.068,-0.014,0.812,178.26,3.11,171.85
15:21:52.937,23.54,25.10,29.82,0.014,-0.068,0.813,171.84,-0.068,-0.014,0.813,178.52,3.43,171.84
15:21:53.272,19.59,21.84,29.85,0.014,-0.068,0.812,171.84,-0.068,-0.014,0.812,178.46,3.27,171.84
15:21:53.607,19.77,21.27,29.85,0.014,-0.068,0.812,171.85,-0.068,-0.014,0.812,178.58,3.49,171.85
15:21:53.942,20.50,21.90,29.85,0.014,-0.068,0.813,171.85,-0.068,-0.014,0.813,178.82,3.67,171.85
15:21:54.277,18.04,19.51,29.85,0.014,-0.068,0.814,171.71,-0.068,-0.014,0.814,-177.34,1.15,171.71
15:21:54.612,20.14,21.79,29.85,0.014,-0.068,0.814,171.72,-0.068,-0.014,0.814,-177.33,1.21,171.72
15:21:54.947,20.54,21.77,29.85,0.014,-0.068,0.814,171.72,-0.068,-0.014,0.814,-177.34,1.22,171.72
15:21:55.282,18.55,20.15,29.84,0.015,-0.068,0.812,171.85,-0.068,-0.015,0.812,179.34,4.12,171.85
15:21:55.617,21.87,23.68,29.85,0.014,-0.068,0.814,171.71,-0.068,-0.014,0.814,-177.22,1.30,171.71
15:21:55.952,18.77,21.24,29.86,0.014,-0.068,0.815,171.72,-0.068,-0.014,0.815,-177.19,1.57,171.72
15:21:56.287,19.05,20.67,29.85,0.014,-0.068,0.815,171.72,-0.068,-0.014,0.815,-177.19,1.57,171.72
15:21:56.622,19.16,20.48,29.84,0.014,-0.068,0.814,171.71,-0.068,-0.014,0.814,-177.28,1.34,171.71
15:21:56.957,17.93,19.31,29.86,0.014,-0.068,0.814,171.72,-0.068,-0.014,0.814,-177.40,1.31,171.72
15:21:57.292,19.95,21.48,29.85,0.014,-0.068,0.814,171.73,-0.068,-0.014,0.814,-177.28,1.42,171.73
15:21:57.627,18.67,20.61,29.85,0.016,-0.064,0.801,172.83,-0.064,-0.016,0.801,-177.82,16.85,172.83
15:21:57.962,19.24,20.85,29.84,0.016,-0.064,0.801,172.81,-0.064,-0.016,0.801,-177.60,16.69,172.81
15:21:58.297,19.89,21.63,29.85,0.016,-0.064,0.801,172.82,-0.064,-0.016,0.801,-177.55,16.69,172.82
15:21:58.632,20.25,22.45,29.84,0.016,-0.064,0.801,172.82,-0.064,-0.016,0.801,-177.60,16.71,172.82
15:21:58.967,18.63,20.13,29.86,0.016,-0.064,0.800,172.78,-0.064,-0.016,0.800,-177.30,16.68,172.78
15:21:59.302,19.41,22.49,29.85,0.016,-0.064,0.800,172.73,-0.064,-0.016,0.800,-177.28,16.38,172.73
15:21:59.637,17.21,19.99,29.86,0.016,-0.064,0.800,172.73,-0.064,-0.016,0.800,-177.29,16.39,172.73
15:21:59.972,19.41,21.06,29.85,0.016,-0.064,0.800,172.72,-0.064,-0.016,0.800,-177.27,16.46,172.72
15:22:00.307,18.99,20.23,29.83,0.014,-0.068,0.815,171.68,-0.068,-0.014,0.815,-177.38,1.67,171.68
15:22:00.642,16.69,18.16,29.85,0.014,-0.068,0.815,171.71,-0.068,-0.014,0.815,-177.62,1.80,171.71
15:22:00.977,19.37,21.01,29.85,0.014,-0.068,0.815,171.69,-0.068,-0.014,0.815,-177.28,1.86,171.69
15:22:01.312,18.60,20.88,29.85,0.014,-0.068,0.815,171.68,-0.068,-0.014,0.815,-177.10,1.90,171.68
15:22:01.647,18.42,20.04,29.85,0.014,-0.068,0.815,171.68,-0.068,-0.014,0.815,-177.12,1.96,171.68
15:22:01.982,30.58,32.31,29.85,0.014,-0.068,0.815,171.70,-0.068,-0.014,0.815,-177.27,1.75,171.70
15:22:02.317,17.25,18.72,29.85,0.014,-0.068,0.814,171.69,-0.068,-0.014,0.814,-177.31,1.57,171.69
15:22:02.652,18.99,20.49,29.84,0.016,-0.065,0.798,172.65,-0.065,-0.016,0.798,-177.33,16.18,172.65
15:22:02.987,19.81,21.13,29.85,0.016,-0.065,0.801,172.64,-0.065,-0.016,0.801,-178.00,15.78,172.64
15:22:03.322,18.62,20.27,29.85,0.016,-0.065,0.801,172.67,-0.065,-0.016,0.801,-177.96,15.93,172.67
15:22:03.657,23.25,24.68,29.86,0.016,-0.065,0.801,172.70,-0.065,-0.016,0.801,-178.06,15.92,172.70
15:22:03.992,18.68,21.00,29.84,0.016,-0.064,0.802,172.79,-0.064,-0.016,0.802,-178.29,16.24,172.79
15:22:04.328,18.56,20.07,29.84,0.014,-0.068,0.812,171.87,-0.068,-0.014,0.812,177.81,3.79,171.87
15:22:04.663,19.12,20.50,29.86,0.014,-0.068,0.811,171.86,-0.068,-0.014,0.811,177.73,3.63,171.86
15:22:04.997,18.09,19.63,29.86,0.014,-0.068,0.812,171.86,-0.068,-0.014,0.812,177.94,3.56,171.86
15:22:05.332,19.71,21.37,29.85,0.014,-0.068,0.812,171.87,-0.068,-0.014,0.812,177.98,3.50,171.87
15:22:05.667,20.67,21.91,29.85,0.014,-0.068,0.812,171.85,-0.068,-0.014,0.812,177.67,3.18,171.85
15:22:06.002,20.44,22.21,29.85,0.014,-0.068,0.812,171.85,-0.068,-0.014,0.812,177.68,3.09,171.85
15:22:06.337,20.46,23.18,29.86,0.014,-0.068,0.811,171.83,-0.068,-0.014,0.811,177.73,2.85,171.83
15:22:06.672,18.53,20.93,29.85,0.014,-0.068,0.812,171.85,-0.068,-0.014,0.812,177.70,3.15,171.85
15:22:07.007,20.32,21.82,29.86,0.014,-0.068,0.811,171.83,-0.068,-0.014,0.811,177.68,2.87,171.83
15:22:07.342,19.47,20.77,29.85,0.014,-0.068,0.812,171.84,-0.068,-0.014,0.812,177.61,2.96,171.84
15:22:07.677,18.39,19.77,29.86,0.014,-0.068,0.812,171.84,-0.068,-0.014,0.812,177.60,2.71,171.84
15:22:08.012,20.16,21.68,29.86,0.014,-0.068,0.812,171.83,-0.068,-0.014,0.812,178.07,2.35,171.83
15:22:08.347,22.27,23.60,29.85,0.014,-0.068,0.812,171.82,-0.068,-0.014,0.812,178.14,2.37,171.82
15:22:08.682,18.98,20.60,29.84,0.014,-0.068,0.812,171.84,-0.068,-0.014,0.812,178.02,3.02,171.84
15:22:09.017,20.83,22.80,29.85,0.014,-0.068,0.812,171.82,-0.068,-0.014,0.812,177.95,2.87,171.82
15:22:09.352,21.17,23.43,29.84,0.014,-0.068,0.812,171.82,-0.068,-0.014,0.812,177.91,2.70,171.82
15:22:09.688,21.49,23.14,29.82,0.014,-0.068,0.811,171.83,-0.068,-0.014,0.811,177.91,2.52,171.83
15:22:10.023,19.83,21.16,29.85,0.014,-0.068,0.811,171.85,-0.068,-0.014,0.811,177.77,2.53,171.85
15:22:10.358,18.35,19.91,29.86,0.014,-0.068,0.813,171.82,-0.068,-0.014,0.813,179.44,3.54,171.82
15:22:10.693,25.30,26.93,29.84,0.014,-0.068,0.813,171.82,-0.068,-0.014,0.813,179.40,3.62,171.82
15:22:11.028,20.09,21.33,29.86,0.014,-0.068,0.812,171.87,-0.068,-0.014,0.812,177.57,2.76,171.87
15:22:11.363,19.63,21.09,29.85,0.014,-0.068,0.813,171.83,-0.068,-0.014,0.813,179.10,3.55,171.83
15:22:11.698,21.15,24.04,29.85,0.014,-0.068,0.813,171.84,-0.068,-0.014,0.813,179.10,3.57,171.84
15:22:12.033,22.32,23.98,29.85,0.014,-0.068,0.811,171.90,-0.068,-0.014,0.811,177.37,3.03,171.90
15:22:12.368,20.40,22.11,29.78,0.014,-0.068,0.812,171.88,-0.068,-0.014,0.812,177.17,3.18,171.88
15:22:12.705,23.32,24.57,29.70,0.014,-0.068,0.812,171.88,-0.068,-0.014,0.812,177.17,3.18,171.88
15:22:13.040,19.18,20.62,29.85,0.014,-0.068,0.812,171.87,-0.068,-0.014,0.812,177.58,3.24,171.87
15:22:13.375,21.67,23.35,29.84,0.014,-0.068,0.812,171.86,-0.068,-0.014,0.812,177.67,3.25,171.86
15:22:13.710,23.50,25.23,29.86,0.014,-0.068,0.812,171.86,-0.068,-0.014,0.812,177.64,3.25,171.86
15:22:14.045,19.88,21.36,29.86,0.014,-0.068,0.812,171.82,-0.068,-0.014,0.812,178.96,4.15,171.82
15:22:14.380,18.41,19.75,29.84,0.014,-0.068,0.811,171.87,-0.068,-0.014,0.811,177.53,3.42,171.87
15:22:14.715,17.99,20.01,29.84,0.016,-0.064,0.800,172.71,-0.064,-0.016,0.800,-178.23,16.10,172.71
15:22:15.050,20.48,22.18,29.86,0.016,-0.065,0.801,172.67,-0.065,-0.016,0.801,-178.05,15.73,172.67
15:22:15.385,20.69,21.94,29.85,0.016,-0.064,0.800,172.74,-0.064,-0.016,0.800,-178.12,16.17,172.74
15:22:15.720,17.76,19.28,29.84,0.016,-0.065,0.800,172.70,-0.065,-0.016,0.800,-178.08,15.86,172.70
15:22:16.055,21.03,22.66,29.84,0.016,-0.064,0.800,172.72,-0.064,-0.016,0.800,-178.09,16.01,172.72
15:22:16.390,20.10,21.82,29.86,0.016,-0.065,0.800,172.70,-0.065,-0.016,0.800,-177.98,15.76,172.70
15:22:16.725,18.89,20.45,29.85,0.016,-0.065,0.800,172.71,-0.065,-0.016,0.800,-177.90,15.89,172.71
15:22:17.060,19.71,21.17,29.87,0.016,-0.064,0.800,172.71,-0.064,-0.016,0.800,-177.91,15.95,172.71
15:22:17.395,17.64,20.04,29.84,0.016,-0.064,0.800,172.72,-0.064,-0.016,0.800,-177.99,16.03,172.72
15:22:17.730,20.17,21.88,29.86,0.016,-0.064,0.800,172.71,-0.064,-0.016,0.800,-177.98,15.99,172.71
15:22:18.065,21.04,24.11,29.86,0.016,-0.065,0.800,172.72,-0.065,-0.016,0.800,-177.92,15.97,172.72
15:22:18.400,17.94,19.50,29.84,0.016,-0.064,0.800,172.69,-0.064,-0.016,0.800,-178.12,15.97,172.69
15:22:18.735,20.53,22.06,29.84,0.016,-0.064,0.800,172.69,-0.064,-0.016,0.800,-178.13,15.98,172.69
15:22:19.070,20.09,21.72,29.85,0.016,-0.064,0.800,172.69,-0.064,-0.016,0.800,-177.89,15.97,172.69
15:22:19.405,19.15,20.63,29.85,0.016,-0.064,0.800,172.72,-0.064,-0.016,0.800,-177.84,16.10,172.72
15:22:19.741,33.47,34.80,29.73,0.016,-0.064,0.800,172.73,-0.064,-0.016,0.800,-177.82,16.11,172.73
15:22:20.076,17.87,19.35,29.87,0.016,-0.064,0.800,172.71,-0.064,-0.016,0.800,-177.86,16.12,172.71
15:22:20.411,18.79,20.57,29.86,0.016,-0.064,0.800,172.72,-0.064,-0.016,0.800,-177.81,16.11,172.72
15:22:20.746,22.63,23.93,29.85,0.016,-0.064,0.800,172.70,-0.064,-0.016,0.800,-177.63,16.06,172.70
15:22:21.081,18.73,20.17,29.85,0.016,-0.064,0.801,172.75,-0.064,-0.016,0.801,-177.94,16.51,172.75
15:22:21.416,19.25,20.81,29.84,0.016,-0.064,0.802,172.74,-0.064,-0.016,0.802,-177.91,16.44,172.74
15:22:21.751,22.45,24.04,29.84,0.016,-0.064,0.800,172.72,-0.064,-0.016,0.800,-177.48,16.36,172.72
15:22:22.086,18.49,20.21,29.84,0.016,-0.064,0.800,172.72,-0.064,-0.016,0.800,-177.48,16.36,172.72
15:22:22.422,19.88,21.19,29.84,0.016,-0.064,0.802,172.77,-0.064,-0.016,0.802,-177.81,16.71,172.77
15:22:22.757,18.01,19.40,29.85,0.016,-0.064,0.802,172.77,-0.064,-0.016,0.802,-177.81,16.68,172.77
15:22:23.093,20.11,21.77,29.75,0.016,-0.064,0.801,172.75,-0.064,-0.016,0.801,-177.75,16.48,172.75
15:22:23.428,22.36,23.60,29.85,0.016,-0.064,0.801,172.75,-0.064,-0.016,0.801,-177.87,16.60,172.75
15:22:23.763,18.72,20.18,29.84,0.016,-0.064,0.800,172.70,-0.064,-0.016,0.800,-177.63,16.29,172.70
15:22:24.098,24.12,25.53,29.85,0.016,-0.064,0.802,172.78,-0.064,-0.016,0.802,-177.81,16.55,172.78
15:22:24.433,18.52,21.09,29.84,0.016,-0.064,0.802,172.77,-0.064,-0.016,0.802,-177.87,16.57,172.77
15:22:24.768,19.17,20.80,29.86,0.016,-0.064,0.802,172.78,-0.064,-0.016,0.802,-177.84,16.60,172.78
15:22:25.103,19.70,20.95,29.85,0.016,-0.064,0.800,172.69,-0.064,-0.016,0.800,-177.49,16.35,172.69
15:22:25.438,18.00,19.46,29.86,0.016,-0.064,0.800,172.67,-0.064,-0.016,0.800,-177.67,16.19,172.67
15:22:25.773,19.62,21.15,29.84,0.016,-0.064,0.802,172.75,-0.064,-0.016,0.802,-178.06,16.65,172.75
15:22:26.108,21.73,23.08,29.84,0.016,-0.064,0.801,172.70,-0.064,-0.016,0.801,-177.93,16.28,172.70
15:22:26.443,27.52,29.46,29.81,0.016,-0.064,0.801,172.70,-0.064,-0.016,0.801,-177.87,16.27,172.70
15:22:26.778,21.20,23.86,29.84,0.016,-0.064,0.800,172.69,-0.064,-0.016,0.800,-177.79,16.19,172.69
15:22:27.113,18.38,20.69,29.84,0.016,-0.064,0.800,172.67,-0.064,-0.016,0.800,-177.80,16.01,172.67
15:22:27.449,18.52,20.03,29.85,0.016,-0.064,0.800,172.68,-0.064,-0.016,0.800,-177.85,16.04,172.68
15:22:27.783,18.99,20.31,29.86,0.016,-0.064,0.800,172.69,-0.064,-0.016,0.800,-177.91,16.21,172.69
15:22:28.118,18.27,19.82,29.85,0.016,-0.064,0.800,172.70,-0.064,-0.016,0.800,-177.90,16.24,172.70
15:22:28.454,19.98,21.69,29.84,0.016,-0.064,0.800,172.71,-0.064,-0.016,0.800,-177.97,16.34,172.71
15:22:28.789,29.90,31.13,29.85,0.016,-0.064,0.802,172.72,-0.064,-0.016,0.802,-178.31,16.21,172.72
15:22:29.124,19.05,20.66,29.85,0.016,-0.064,0.802,172.68,-0.064,-0.016,0.802,-178.44,16.22,172.68
15:22:29.458,19.28,22.20,29.86,0.016,-0.064,0.802,172.69,-0.064,-0.016,0.802,-178.18,16.05,172.69
15:22:29.794,20.29,22.74,29.84,0.016,-0.064,0.801,172.69,-0.064,-0.016,0.801,-177.91,16.26,172.69
15:22:30.128,19.33,20.75,29.87,0.016,-0.064,0.802,172.74,-0.064,-0.016,0.802,-177.91,16.62,172.74
15:22:30.464,19.31,20.63,29.85,0.016,-0.064,0.800,172.68,-0.064,-0.016,0.800,-177.56,16.39,172.68
15:22:30.798,17.85,19.39,29.85,0.016,-0.064,0.800,172.66,-0.064,-0.016,0.800,-177.68,16.34,172.66
15:22:31.134,19.86,21.62,29.84,0.016,-0.064,0.800,172.66,-0.064,-0.016,0.800,-177.65,16.35,172.66
15:22:31.469,22.64,24.10,29.84,0.016,-0.064,0.800,172.67,-0.064,-0.016,0.800,-177.71,16.28,172.67
15:22:31.804,18.78,20.37,29.82,0.016,-0.064,0.800,172.65,-0.064,-0.016,0.800,-177.69,16.00,172.65
15:22:32.139,19.20,21.10,29.85,0.016,-0.064,0.800,172.66,-0.064,-0.016,0.800,-177.68,16.18,172.66
15:22:32.474,23.66,26.10,29.85,0.016,-0.064,0.800,172.66,-0.064,-0.016,0.800,-177.66,16.19,172.66
15:22:32.809,20.54,22.18,29.85,0.016,-0.064,0.800,172.67,-0.064,-0.016,0.800,-177.72,16.07,172.67
15:22:33.144,19.15,20.38,29.85,0.016,-0.064,0.800,172.68,-0.064,-0.016,0.800,-177.75,16.08,172.68
15:22:33.479,18.25,19.79,29.85,0.016,-0.064,0.800,172.65,-0.064,-0.016,0.800,-177.67,16.07,172.65
15:22:33.814,19.62,21.19,29.84,0.016,-0.064,0.802,172.74,-0.064,-0.016,0.802,-178.00,16.37,172.74
15:22:34.149,20.51,22.11,29.84,0.016,-0.064,0.800,172.67,-0.064,-0.016,0.800,-177.78,16.10,172.67
15:22:34.484,19.91,21.51,29.86,0.016,-0.064,0.800,172.67,-0.064,-0.016,0.800,-177.85,16.00,172.67
15:22:34.819,18.86,20.88,29.85,0.016,-0.064,0.800,172.66,-0.064,-0.016,0.800,-177.92,16.09,172.66
15:22:35.154,18.10,20.79,29.84,0.016,-0.064,0.800,172.62,-0.064,-0.016,0.800,-178.19,15.90,172.62
15:22:35.489,18.65,20.22,29.85,0.016,-0.064,0.800,172.66,-0.064,-0.016,0.800,-178.04,15.93,172.66
15:22:35.824,19.26,20.59,29.85,0.016,-0.064,0.800,172.62,-0.064,-0.016,0.800,-178.19,15.92,172.62
15:22:36.159,17.99,19.51,29.85,0.016,-0.065,0.800,172.68,-0.065,-0.016,0.800,-177.95,15.82,172.68
15:22:36.495,19.00,20.65,29.84,0.016,-0.064,0.801,172.75,-0.064,-0.016,0.801,-178.49,16.58,172.75
15:22:36.830,21.41,22.87,29.83,0.016,-0.064,0.800,172.69,-0.064,-0.016,0.800,-178.24,16.35,172.69
15:22:37.165,19.57,21.05,29.87,0.016,-0.064,0.800,172.67,-0.064,-0.016,0.800,-178.22,16.23,172.67
15:22:37.500,21.87,23.88,29.86,0.016,-0.064,0.800,172.63,-0.064,-0.016,0.800,-178.42,15.98,172.63
15:22:37.835,18.19,21.11,29.84,0.016,-0.065,0.800,172.70,-0.065,-0.016,0.800,-177.64,16.48,172.70
15:22:38.170,19.75,21.48,29.85,0.016,-0.065,0.800,172.69,-0.065,-0.016,0.800,-177.61,16.37,172.69
15:22:38.505,19.02,21.86,29.85,0.016,-0.064,0.800,172.67,-0.064,-0.016,0.800,-178.57,16.02,172.67
15:22:38.840,18.37,19.78,29.85,0.016,-0.064,0.800,172.66,-0.064,-0.016,0.800,-178.73,15.97,172.66
15:22:39.175,21.68,23.20,29.85,0.016,-0.065,0.801,172.68,-0.065,-0.016,0.801,-177.68,16.12,172.68
15:22:39.510,20.29,21.89,29.84,0.016,-0.065,0.801,172.67,-0.065,-0.016,0.801,-178.51,15.69,172.67
15:22:39.845,19.35,20.94,29.85,0.016,-0.065,0.801,172.70,-0.065,-0.016,0.801,-178.65,15.68,172.70
15:22:40.180,18.94,20.18,29.85,0.016,-0.065,0.801,172.69,-0.065,-0.016,0.801,-178.75,15.61,172.69
15:22:40.515,17.59,20.33,29.85,0.016,-0.065,0.801,172.67,-0.065,-0.016,0.801,-178.58,15.28,172.67
15:22:40.850,20.08,22.73,29.85,0.016,-0.065,0.801,172.72,-0.065,-0.016,0.801,-178.52,15.60,172.72
15:22:41.185,19.20,20.52,29.86,0.016,-0.065,0.802,172.48,-0.065,-0.016,0.802,-178.47,13.68,172.48
15:22:41.520,17.52,19.04,29.86,0.016,-0.065,0.801,172.67,-0.065,-0.016,0.801,-178.26,15.26,172.67
15:22:41.855,22.35,24.01,29.84,0.016,-0.065,0.801,172.67,-0.065,-0.016,0.801,-178.31,15.63,172.67
15:22:42.190,24.53,26.07,29.85,0.016,-0.064,0.801,172.69,-0.064,-0.016,0.801,-178.26,15.73,172.69
15:22:42.525,18.43,20.04,29.87,0.016,-0.065,0.801,172.68,-0.065,-0.016,0.801,-178.17,15.65,172.68
15:22:42.860,21.71,24.19,29.85,0.016,-0.064,0.800,172.67,-0.064,-0.016,0.800,-178.13,15.77,172.67
15:22:43.194,19.35,20.85,29.86,0.016,-0.064,0.801,172.67,-0.064,-0.016,0.801,-178.05,15.77,172.67
15:22:43.529,18.88,20.60,29.86,0.016,-0.064,0.800,172.61,-0.064,-0.016,0.800,-178.48,15.76,172.61
15:22:43.864,19.19,20.43,29.86,0.016,-0.064,0.800,172.65,-0.064,-0.016,0.800,-178.32,15.75,172.65
15:22:44.199,18.15,19.54,29.86,0.016,-0.064,0.800,172.65,-0.064,-0.016,0.800,-178.26,15.75,172.65
15:22:44.534,21.92,23.61,29.85,0.016,-0.064,0.800,172.63,-0.064,-0.016,0.800,-178.33,15.90,172.63
15:22:44.872,27.81,30.05,29.63,0.016,-0.064,0.800,172.64,-0.064,-0.016,0.800,-178.33,15.87,172.64
15:22:45.210,21.17,22.72,29.52,0.016,-0.064,0.800,172.64,-0.064,-0.016,0.800,-178.32,15.83,172.64
15:22:45.545,20.79,22.19,29.86,0.016,-0.064,0.800,172.63,-0.064,-0.016,0.800,-178.39,15.80,172.63
15:22:45.881,19.09,20.64,29.84,0.016,-0.064,0.800,172.61,-0.064,-0.016,0.800,-178.53,15.65,172.61
15:22:46.216,21.10,22.75,29.84,0.016,-0.065,0.800,172.61,-0.065,-0.016,0.800,-178.48,15.66,172.61
15:22:46.551,20.24,21.86,29.84,0.016,-0.064,0.800,172.65,-0.064,-0.016,0.800,-178.55,15.91,172.65
15:22:46.886,21.26,22.78,29.85,0.016,-0.064,0.800,172.64,-0.064,-0.016,0.800,-178.62,15.90,172.64
