Timestamp,Algo_ms,Loop_ms,FPS,Body_X,Body_Y,Alt_Z,Marker_Yaw,Cam_X,Cam_Y,Cam_Z,Cam_Roll,Cam_Pitch,Cam_Yaw
15:43:21.163,26.65,28.36,26.31,0.014,-0.068,0.813,171.77,-0.068,-0.014,0.813,179.47,3.48,171.77
15:43:21.498,21.95,23.41,29.86,0.014,-0.068,0.811,171.82,-0.068,-0.014,0.811,177.89,2.39,171.82
15:43:21.833,20.00,21.51,29.87,0.014,-0.068,0.811,171.82,-0.068,-0.014,0.811,177.63,2.28,171.82
15:43:22.168,21.68,23.40,29.83,0.014,-0.068,0.811,171.84,-0.068,-0.014,0.811,177.63,2.49,171.84
15:43:22.503,21.70,23.08,29.84,0.014,-0.068,0.811,171.88,-0.068,-0.014,0.811,177.72,2.76,171.88
15:43:22.838,20.01,21.67,29.84,0.014,-0.068,0.811,171.88,-0.068,-0.014,0.811,177.70,2.81,171.88
15:43:23.173,23.03,24.66,29.85,0.014,-0.068,0.811,171.88,-0.068,-0.014,0.811,177.70,2.80,171.88
15:43:23.508,20.94,23.44,29.84,0.014,-0.068,0.811,171.88,-0.068,-0.014,0.811,177.70,2.81,171.88
15:43:23.843,21.22,22.90,29.83,0.014,-0.068,0.811,171.87,-0.068,-0.014,0.811,177.53,2.94,171.87
15:43:24.178,19.79,21.18,29.86,0.014,-0.068,0.811,171.87,-0.068,-0.014,0.811,177.70,2.85,171.87
15:43:24.513,20.05,21.88,29.86,0.014,-0.068,0.811,171.86,-0.068,-0.014,0.811,177.67,2.72,171.86
15:43:24.848,22.94,24.60,29.84,0.014,-0.068,0.811,171.83,-0.068,-0.014,0.811,178.08,2.18,171.83
15:43:25.183,22.74,24.11,29.85,0.014,-0.068,0.813,171.79,-0.068,-0.014,0.813,179.76,3.60,171.79
15:43:25.518,19.92,21.73,29.84,0.014,-0.068,0.811,171.83,-0.068,-0.014,0.811,177.83,2.36,171.83
15:43:25.853,20.77,22.49,29.84,0.014,-0.068,0.811,171.84,-0.068,-0.014,0.811,177.80,2.65,171.84
15:43:26.191,21.74,23.22,29.62,0.014,-0.068,0.811,171.84,-0.068,-0.014,0.811,177.52,2.63,171.84
15:43:26.526,20.67,22.41,29.87,0.014,-0.068,0.811,171.84,-0.068,-0.014,0.811,177.45,2.88,171.84
15:43:26.861,20.86,22.22,29.86,0.014,-0.068,0.811,171.83,-0.068,-0.014,0.811,177.58,2.65,171.83
15:43:27.196,23.01,24.93,29.84,0.014,-0.068,0.811,171.83,-0.068,-0.014,0.811,177.67,2.50,171.83
15:43:27.531,22.10,23.72,29.82,0.014,-0.068,0.813,171.80,-0.068,-0.014,0.813,179.23,3.69,171.80
15:43:27.866,21.58,23.54,29.85,0.014,-0.068,0.813,171.81,-0.068,-0.014,0.813,179.27,4.13,171.81
15:43:28.203,20.64,22.42,29.65,0.015,-0.068,0.812,171.82,-0.068,-0.015,0.812,179.24,4.22,171.82
15:43:28.539,27.13,28.51,29.84,0.014,-0.068,0.812,171.79,-0.068,-0.014,0.812,179.01,4.19,171.79
15:43:28.873,18.59,20.17,29.86,0.016,-0.064,0.802,172.77,-0.064,-0.016,0.802,-177.98,16.54,172.77
15:43:29.211,20.42,22.04,29.66,0.016,-0.064,0.802,172.77,-0.064,-0.016,0.802,-177.98,16.54,172.77
15:43:29.546,20.18,21.75,29.86,0.014,-0.068,0.811,171.85,-0.068,-0.014,0.811,177.39,3.27,171.85
15:43:29.881,19.99,21.65,29.84,0.014,-0.068,0.812,171.81,-0.068,-0.014,0.812,179.20,4.28,171.81
15:43:30.216,21.17,24.45,29.85,0.014,-0.068,0.812,171.81,-0.068,-0.014,0.812,179.13,4.27,171.81
15:43:30.551,19.42,21.01,29.84,0.016,-0.065,0.801,172.71,-0.065,-0.016,0.801,-177.58,16.19,172.71
15:43:30.886,23.70,25.63,29.84,0.016,-0.065,0.801,172.65,-0.065,-0.016,0.801,-178.57,15.59,172.65
15:43:31.221,21.29,22.65,29.86,0.016,-0.064,0.802,172.72,-0.064,-0.016,0.802,-179.07,16.05,172.72
15:43:31.556,18.26,20.16,29.85,0.016,-0.064,0.802,172.80,-0.064,-0.016,0.802,-178.11,16.62,172.80
15:43:31.891,20.08,21.80,29.85,0.016,-0.064,0.802,172.80,-0.064,-0.016,0.802,-178.11,16.62,172.80
15:43:32.226,19.84,21.64,29.84,0.016,-0.065,0.801,172.61,-0.065,-0.016,0.801,-179.03,15.23,172.61
15:43:32.561,20.05,21.69,29.86,0.015,-0.068,0.812,171.83,-0.068,-0.015,0.812,179.76,3.99,171.83
15:43:32.896,20.97,24.12,29.85,0.015,-0.068,0.812,171.83,-0.068,-0.015,0.812,179.75,4.03,171.83
15:43:33.233,18.49,19.99,29.64,0.014,-0.068,0.812,171.80,-0.068,-0.014,0.812,179.21,4.35,171.80
15:43:33.568,20.25,21.99,29.84,0.014,-0.068,0.811,171.84,-0.068,-0.014,0.811,177.62,3.45,171.84
15:43:33.903,20.46,21.81,29.85,0.015,-0.068,0.812,171.79,-0.068,-0.015,0.812,179.19,4.44,171.79
15:43:34.256,19.33,22.22,28.38,0.014,-0.068,0.811,171.82,-0.068,-0.014,0.811,177.61,3.24,171.82
15:43:34.597,19.84,21.43,29.34,0.014,-0.068,0.811,171.81,-0.068,-0.014,0.811,178.13,2.98,171.81
15:43:34.932,21.09,22.75,29.84,0.014,-0.068,0.811,171.81,-0.068,-0.014,0.811,178.14,3.04,171.81
15:43:35.272,18.25,19.75,29.36,0.014,-0.068,0.811,171.81,-0.068,-0.014,0.811,178.15,2.96,171.81
15:43:35.608,28.77,31.88,29.81,0.014,-0.068,0.811,171.80,-0.068,-0.014,0.811,178.24,3.02,171.80
15:43:35.943,21.91,23.26,29.84,0.014,-0.068,0.812,171.80,-0.068,-0.014,0.812,178.24,3.30,171.80
15:43:36.282,27.57,29.39,29.48,0.014,-0.068,0.811,171.82,-0.068,-0.014,0.811,178.12,3.69,171.82
15:43:36.620,19.41,20.79,29.64,0.014,-0.068,0.812,171.81,-0.068,-0.014,0.812,178.30,3.52,171.81
15:43:36.954,18.27,19.84,29.85,0.014,-0.068,0.811,171.81,-0.068,-0.014,0.811,178.06,3.30,171.81
15:43:37.290,20.36,22.20,29.85,0.014,-0.068,0.811,171.81,-0.068,-0.014,0.811,177.94,3.14,171.81
15:43:37.624,25.29,27.17,29.86,0.015,-0.068,0.812,171.76,-0.068,-0.015,0.812,179.50,4.35,171.76
15:43:37.960,19.01,21.03,29.84,0.015,-0.068,0.811,171.78,-0.068,-0.015,0.811,178.30,3.23,171.78
15:43:38.297,19.51,21.59,29.65,0.015,-0.068,0.812,171.79,-0.068,-0.015,0.812,178.81,3.72,171.79
15:43:38.632,19.99,21.48,29.86,0.015,-0.068,0.812,171.77,-0.068,-0.015,0.812,178.92,3.78,171.77
15:43:38.967,19.56,21.28,29.86,0.015,-0.068,0.812,171.77,-0.068,-0.015,0.812,179.17,3.74,171.77
15:43:39.302,23.33,25.47,29.86,0.015,-0.068,0.812,171.75,-0.068,-0.015,0.812,179.85,3.88,171.75
15:43:39.637,19.19,20.76,29.84,0.015,-0.068,0.812,171.75,-0.068,-0.015,0.812,179.68,3.39,171.75
15:43:39.972,20.44,22.27,29.85,0.015,-0.068,0.812,171.76,-0.068,-0.015,0.812,179.38,3.36,171.76
15:43:40.307,20.14,22.47,29.84,0.015,-0.068,0.812,171.77,-0.068,-0.015,0.812,178.78,3.27,171.77
15:43:40.642,19.18,20.92,29.86,0.015,-0.068,0.812,171.76,-0.068,-0.015,0.812,178.91,3.05,171.76
15:43:40.977,23.15,25.58,29.84,0.015,-0.068,0.812,171.75,-0.068,-0.015,0.812,178.95,2.93,171.75
15:43:41.312,18.78,20.31,29.83,0.015,-0.068,0.812,171.77,-0.068,-0.015,0.812,178.67,2.77,171.77
15:43:41.647,22.83,24.70,29.85,0.015,-0.068,0.812,171.76,-0.068,-0.015,0.812,178.81,2.89,171.76
15:43:41.982,20.20,21.62,29.85,0.015,-0.068,0.812,171.76,-0.068,-0.015,0.812,178.94,2.90,171.76
15:43:42.317,19.79,21.40,29.85,0.015,-0.068,0.812,171.75,-0.068,-0.015,0.812,178.79,2.89,171.75
15:43:42.655,24.17,25.85,29.63,0.014,-0.068,0.812,171.78,-0.068,-0.014,0.812,178.07,2.67,171.78
15:43:42.990,18.79,21.61,29.85,0.014,-0.068,0.812,171.80,-0.068,-0.014,0.812,177.87,2.77,171.80
15:43:43.325,20.36,22.06,29.83,0.014,-0.068,0.812,171.80,-0.068,-0.014,0.812,177.99,2.56,171.80
15:43:43.660,20.30,21.67,29.85,0.014,-0.068,0.812,171.82,-0.068,-0.014,0.812,177.89,2.51,171.82
15:43:44.002,28.44,30.44,29.20,0.014,-0.068,0.812,171.83,-0.068,-0.014,0.812,177.80,2.53,171.83
15:43:44.338,20.26,23.08,29.76,0.014,-0.068,0.811,171.83,-0.068,-0.014,0.811,177.66,2.38,171.83
15:43:44.673,21.07,22.63,29.85,0.014,-0.068,0.811,171.85,-0.068,-0.014,0.811,177.69,2.51,171.85
15:43:45.009,23.95,25.72,29.84,0.014,-0.068,0.812,171.84,-0.068,-0.014,0.812,177.47,2.53,171.84
15:43:45.344,24.56,25.91,29.82,0.014,-0.068,0.812,171.85,-0.068,-0.014,0.812,177.62,2.61,171.85
15:43:45.679,19.93,21.51,29.84,0.014,-0.068,0.811,171.86,-0.068,-0.014,0.811,178.16,2.47,171.86
15:43:46.014,23.62,25.30,29.82,0.014,-0.068,0.811,171.86,-0.068,-0.014,0.811,178.12,2.46,171.86
15:43:46.349,27.06,28.79,29.85,0.014,-0.068,0.811,171.86,-0.068,-0.014,0.811,178.03,2.47,171.86
15:43:46.685,21.28,22.95,29.83,0.014,-0.068,0.811,171.85,-0.068,-0.014,0.811,178.16,2.38,171.85
15:43:47.020,20.27,21.63,29.85,0.014,-0.068,0.811,171.84,-0.068,-0.014,0.811,178.00,2.52,171.84
15:43:47.355,20.15,21.66,29.82,0.014,-0.068,0.811,171.83,-0.068,-0.014,0.811,177.89,2.51,171.83
15:43:47.690,20.28,22.30,29.85,0.014,-0.068,0.811,171.83,-0.068,-0.014,0.811,177.81,2.64,171.83
15:43:48.025,21.14,22.52,29.85,0.014,-0.068,0.811,171.83,-0.068,-0.014,0.811,177.80,2.63,171.83
15:43:48.360,20.14,21.77,29.86,0.014,-0.068,0.811,171.83,-0.068,-0.014,0.811,177.82,2.62,171.83
15:43:48.695,22.58,24.21,29.86,0.014,-0.068,0.811,171.83,-0.068,-0.014,0.811,177.80,2.65,171.83
15:43:49.037,19.26,20.97,29.23,0.014,-0.068,0.811,171.83,-0.068,-0.014,0.811,177.84,2.37,171.83
15:43:49.372,21.34,23.05,29.85,0.014,-0.068,0.811,171.87,-0.068,-0.014,0.811,177.86,2.82,171.87
15:43:49.707,21.12,22.77,29.86,0.015,-0.068,0.813,171.81,-0.068,-0.015,0.813,179.69,3.77,171.81
15:43:50.042,19.93,21.62,29.86,0.014,-0.068,0.813,171.82,-0.068,-0.014,0.813,179.56,3.69,171.82
15:43:50.377,20.60,22.23,29.86,0.015,-0.068,0.813,171.84,-0.068,-0.015,0.813,179.54,3.76,171.84
15:43:50.712,18.31,20.76,29.84,0.015,-0.068,0.813,171.84,-0.068,-0.015,0.813,179.55,3.81,171.84
15:43:51.047,23.49,25.20,29.85,0.014,-0.068,0.813,171.82,-0.068,-0.014,0.813,179.31,3.82,171.82
15:43:51.382,20.54,21.96,29.85,0.014,-0.068,0.813,171.79,-0.068,-0.014,0.813,179.18,3.75,171.79
15:43:51.717,18.07,19.90,29.85,0.014,-0.068,0.811,171.83,-0.068,-0.014,0.811,177.98,3.22,171.83
15:43:52.052,21.69,23.48,29.85,0.014,-0.068,0.812,171.83,-0.068,-0.014,0.812,178.17,3.66,171.83
15:43:52.387,19.25,21.03,29.85,0.014,-0.068,0.811,171.84,-0.068,-0.014,0.811,177.58,3.31,171.84
15:43:52.722,18.82,20.53,29.85,0.015,-0.068,0.812,171.82,-0.068,-0.015,0.812,179.32,4.31,171.82
15:43:53.057,20.74,22.42,29.85,0.015,-0.068,0.812,171.82,-0.068,-0.015,0.812,179.31,4.31,171.82
15:43:53.392,19.14,20.96,29.84,0.016,-0.065,0.801,172.63,-0.065,-0.016,0.801,-178.27,15.70,172.63
15:43:53.730,20.65,22.63,29.57,0.016,-0.064,0.800,172.71,-0.064,-0.016,0.800,-178.00,15.98,172.71
15:43:54.065,21.04,22.44,29.84,0.016,-0.064,0.800,172.71,-0.064,-0.016,0.800,-178.00,16.00,172.71
15:43:54.400,20.25,21.85,29.86,0.016,-0.064,0.800,172.71,-0.064,-0.016,0.800,-177.97,16.01,172.71
15:43:54.735,19.47,21.12,29.86,0.016,-0.064,0.800,172.71,-0.064,-0.016,0.800,-177.93,15.90,172.71
15:43:55.072,19.61,21.28,29.67,0.016,-0.064,0.800,172.67,-0.064,-0.016,0.800,-178.04,16.03,172.67
15:43:55.407,20.41,22.14,29.87,0.016,-0.064,0.800,172.69,-0.064,-0.016,0.800,-178.05,16.14,172.69
15:43:55.742,19.95,21.35,29.86,0.016,-0.064,0.800,172.71,-0.064,-0.016,0.800,-177.92,16.18,172.71
15:43:56.077,19.85,21.45,29.84,0.016,-0.064,0.802,172.72,-0.064,-0.016,0.802,-178.56,16.38,172.72
15:43:56.412,20.23,21.97,29.85,0.016,-0.064,0.801,172.69,-0.064,-0.016,0.801,-178.48,16.16,172.69
15:43:56.747,24.59,26.31,29.86,0.016,-0.064,0.802,172.71,-0.064,-0.016,0.802,-178.61,16.31,172.71
15:43:57.082,19.83,21.51,29.85,0.014,-0.068,0.811,171.83,-0.068,-0.014,0.811,177.67,3.49,171.83
15:43:57.419,19.78,21.13,29.66,0.016,-0.065,0.801,172.71,-0.065,-0.016,0.801,-177.56,16.26,172.71
15:43:57.754,18.11,19.67,29.86,0.014,-0.068,0.812,171.79,-0.068,-0.014,0.812,179.02,4.10,171.79
15:43:58.089,23.40,25.01,29.86,0.014,-0.068,0.812,171.80,-0.068,-0.014,0.812,179.16,4.21,171.80
15:43:58.424,23.83,25.40,29.86,0.014,-0.068,0.812,171.80,-0.068,-0.014,0.812,179.12,4.23,171.80
15:43:58.759,21.88,23.50,29.83,0.014,-0.068,0.811,171.83,-0.068,-0.014,0.811,177.74,3.11,171.83
15:43:59.094,22.02,23.76,29.86,0.014,-0.068,0.811,171.82,-0.068,-0.014,0.811,177.56,3.11,171.82
15:43:59.429,20.45,22.87,29.85,0.014,-0.068,0.811,171.82,-0.068,-0.014,0.811,177.56,3.03,171.82
15:43:59.765,20.83,22.55,29.70,0.014,-0.068,0.812,171.81,-0.068,-0.014,0.812,177.96,2.77,171.81
15:44:00.100,20.41,21.83,29.87,0.014,-0.068,0.812,171.79,-0.068,-0.014,0.812,178.21,2.76,171.79
15:44:00.435,18.67,20.21,29.86,0.014,-0.068,0.812,171.78,-0.068,-0.014,0.812,177.98,2.72,171.78
15:44:00.770,20.28,22.17,29.85,0.014,-0.068,0.812,171.79,-0.068,-0.014,0.812,177.88,2.66,171.79
15:44:01.105,20.92,22.27,29.86,0.014,-0.068,0.811,171.79,-0.068,-0.014,0.811,178.09,2.79,171.79
15:44:01.440,19.24,20.82,29.83,0.015,-0.068,0.811,171.79,-0.068,-0.015,0.811,178.21,3.02,171.79
15:44:01.775,21.14,22.76,29.86,0.015,-0.068,0.811,171.79,-0.068,-0.015,0.811,178.40,3.04,171.79
15:44:02.110,19.39,21.85,29.85,0.015,-0.068,0.812,171.76,-0.068,-0.015,0.812,178.60,3.03,171.76
15:44:02.445,19.19,20.84,29.85,0.015,-0.068,0.811,171.76,-0.068,-0.015,0.811,178.92,2.81,171.76
15:44:02.780,19.49,20.84,29.86,0.015,-0.068,0.811,171.75,-0.068,-0.015,0.811,178.94,2.98,171.75
15:44:03.115,20.42,22.14,29.87,0.015,-0.068,0.811,171.76,-0.068,-0.015,0.811,178.91,2.97,171.76
15:44:03.450,24.09,25.81,29.85,0.015,-0.068,0.812,171.75,-0.068,-0.015,0.812,178.85,3.31,171.75
15:44:03.785,20.82,22.17,29.85,0.015,-0.068,0.812,171.75,-0.068,-0.015,0.812,178.85,3.31,171.75
15:44:04.122,20.64,22.29,29.62,0.015,-0.068,0.812,171.76,-0.068,-0.015,0.812,178.83,3.22,171.76
15:44:04.457,20.95,22.59,29.86,0.015,-0.068,0.812,171.74,-0.068,-0.015,0.812,178.82,3.36,171.74
15:44:04.792,20.29,22.93,29.85,0.015,-0.067,0.812,171.74,-0.067,-0.015,0.812,178.70,3.38,171.74
15:44:05.127,20.64,22.35,29.87,0.015,-0.068,0.812,171.77,-0.068,-0.015,0.812,178.50,3.29,171.77
15:44:05.462,21.60,23.01,29.85,0.014,-0.068,0.812,171.76,-0.068,-0.014,0.812,178.40,3.26,171.76
15:44:05.798,29.65,32.00,29.78,0.014,-0.068,0.812,171.78,-0.068,-0.014,0.812,178.26,3.07,171.78
15:44:06.135,19.76,22.21,29.65,0.015,-0.068,0.811,171.79,-0.068,-0.015,0.811,178.19,3.10,171.79
15:44:06.470,18.58,21.35,29.86,0.015,-0.068,0.811,171.78,-0.068,-0.015,0.811,178.38,2.92,171.78
15:44:06.815,41.61,43.81,28.97,0.015,-0.067,0.811,171.78,-0.067,-0.015,0.811,178.14,3.26,171.78
15:44:07.154,18.52,20.08,29.51,0.016,-0.064,0.801,172.66,-0.064,-0.016,0.801,-177.40,16.26,172.66
15:44:07.489,22.54,24.24,29.85,0.016,-0.064,0.801,172.72,-0.064,-0.016,0.801,-177.57,16.61,172.72
15:44:07.824,23.59,24.97,29.84,0.016,-0.064,0.800,172.56,-0.064,-0.016,0.800,-178.48,15.93,172.56
15:44:08.164,20.87,22.50,29.45,0.014,-0.067,0.811,171.81,-0.067,-0.014,0.811,177.42,3.55,171.81
15:44:08.499,19.74,21.10,29.83,0.014,-0.067,0.811,171.82,-0.067,-0.014,0.811,177.25,3.54,171.82
15:44:08.834,18.51,20.10,29.86,0.016,-0.064,0.800,172.60,-0.064,-0.016,0.800,-178.54,15.66,172.60
15:44:09.169,20.26,22.07,29.86,0.014,-0.067,0.811,171.82,-0.067,-0.014,0.811,177.26,3.51,171.82
15:44:09.504,24.51,25.87,29.85,0.016,-0.064,0.800,172.57,-0.064,-0.016,0.800,-178.64,15.86,172.57
15:44:09.839,19.15,20.71,29.83,0.014,-0.067,0.810,171.81,-0.067,-0.014,0.810,177.26,3.30,171.81
15:44:10.174,20.23,21.92,29.86,0.014,-0.067,0.810,171.79,-0.067,-0.014,0.810,177.49,3.38,171.79
15:44:10.509,21.74,24.19,29.84,0.015,-0.068,0.812,171.75,-0.068,-0.015,0.812,179.08,4.48,171.75
15:44:10.844,18.95,20.61,29.85,0.016,-0.064,0.802,172.74,-0.064,-0.016,0.802,-177.91,16.66,172.74
15:44:11.179,19.89,21.25,29.85,0.014,-0.068,0.813,171.75,-0.068,-0.014,0.813,178.89,4.37,171.75
15:44:11.514,18.53,20.10,29.86,0.016,-0.064,0.802,172.75,-0.064,-0.016,0.802,-178.07,16.75,172.75
15:44:11.851,20.95,22.86,29.65,0.016,-0.064,0.801,172.68,-0.064,-0.016,0.801,-179.16,16.42,172.68
15:44:12.186,23.16,24.76,29.85,0.016,-0.064,0.801,172.63,-0.064,-0.016,0.801,-179.26,16.16,172.63
15:44:12.521,19.70,21.42,29.84,0.016,-0.064,0.800,172.57,-0.064,-0.016,0.800,-178.79,15.55,172.57
15:44:12.856,24.34,26.10,29.85,0.016,-0.065,0.801,172.66,-0.065,-0.016,0.801,-177.63,16.34,172.66
15:44:13.192,19.49,22.01,29.83,0.016,-0.065,0.801,172.66,-0.065,-0.016,0.801,-177.57,16.19,172.66
15:44:13.526,21.56,23.35,29.87,0.016,-0.065,0.801,172.66,-0.065,-0.016,0.801,-177.57,16.19,172.66
15:44:13.868,19.32,21.78,29.24,0.016,-0.064,0.802,172.75,-0.064,-0.016,0.802,-177.91,16.72,172.75
15:44:14.206,19.58,21.30,29.61,0.016,-0.064,0.801,172.53,-0.064,-0.016,0.801,-178.96,15.37,172.53
15:44:14.541,19.70,21.04,29.87,0.016,-0.064,0.801,172.50,-0.064,-0.016,0.801,-179.08,15.30,172.50
15:44:14.876,18.01,19.53,29.85,0.016,-0.065,0.801,172.50,-0.065,-0.016,0.801,-178.98,15.24,172.50
15:44:15.211,23.94,26.50,29.85,0.016,-0.064,0.801,172.58,-0.064,-0.016,0.801,-179.02,15.63,172.58
15:44:15.546,23.37,25.05,29.84,0.014,-0.067,0.811,171.82,-0.067,-0.014,0.811,177.14,3.55,171.82
15:44:15.883,21.20,22.81,29.65,0.014,-0.067,0.811,171.81,-0.067,-0.014,0.811,177.16,3.45,171.81
15:44:16.218,20.38,21.80,29.86,0.014,-0.067,0.811,171.82,-0.067,-0.014,0.811,177.17,3.49,171.82
15:44:16.553,17.71,19.63,29.82,0.016,-0.064,0.802,172.61,-0.064,-0.016,0.802,-179.17,15.84,172.61
15:44:16.888,26.34,28.26,29.85,0.014,-0.067,0.811,171.81,-0.067,-0.014,0.811,177.23,3.62,171.81
15:44:17.232,18.34,20.71,29.15,0.014,-0.067,0.811,171.80,-0.067,-0.014,0.811,177.16,3.46,171.80
15:44:17.566,21.46,23.37,29.87,0.014,-0.067,0.811,171.80,-0.067,-0.014,0.811,177.19,3.51,171.80
15:44:17.901,23.17,24.52,29.87,0.014,-0.067,0.811,171.79,-0.067,-0.014,0.811,176.94,3.31,171.79
15:44:18.243,19.73,21.34,29.23,0.014,-0.067,0.811,171.78,-0.067,-0.014,0.811,176.92,3.20,171.78
15:44:18.578,20.84,22.25,29.83,0.014,-0.067,0.811,171.78,-0.067,-0.014,0.811,177.02,3.06,171.78
15:44:18.913,18.04,19.59,29.86,0.014,-0.067,0.811,171.78,-0.067,-0.014,0.811,177.32,3.53,171.78
15:44:19.248,19.66,21.33,29.87,0.016,-0.064,0.802,172.54,-0.064,-0.016,0.802,-179.28,15.50,172.54
15:44:19.591,18.32,20.92,29.20,0.016,-0.064,0.802,172.58,-0.064,-0.016,0.802,-179.27,15.73,172.58
15:44:19.926,20.10,21.78,29.78,0.014,-0.067,0.811,171.80,-0.067,-0.014,0.811,177.46,3.44,171.80
15:44:20.261,20.57,21.91,29.87,0.014,-0.067,0.811,171.83,-0.067,-0.014,0.811,177.45,3.15,171.83
15:44:20.596,19.17,20.96,29.86,0.014,-0.067,0.811,171.83,-0.067,-0.014,0.811,177.33,3.18,171.83
15:44:20.931,19.98,21.65,29.84,0.016,-0.064,0.801,172.56,-0.064,-0.016,0.801,-179.23,15.42,172.56
15:44:21.270,25.75,28.43,29.54,0.016,-0.065,0.801,172.52,-0.065,-0.016,0.801,-179.39,15.09,172.52
15:44:21.605,22.57,24.44,29.81,0.016,-0.064,0.802,172.60,-0.064,-0.016,0.802,-179.59,15.77,172.60
15:44:21.944,22.88,24.23,29.51,0.016,-0.064,0.801,172.52,-0.064,-0.016,0.801,-179.19,15.28,172.52
15:44:22.279,20.80,22.38,29.85,0.016,-0.064,0.802,172.59,-0.064,-0.016,0.802,-179.37,15.76,172.59
15:44:22.615,21.05,22.67,29.82,0.016,-0.064,0.802,172.60,-0.064,-0.016,0.802,-179.33,15.95,172.60
15:44:22.957,18.28,20.04,29.25,0.016,-0.064,0.800,172.54,-0.064,-0.016,0.800,-179.11,15.71,172.54
15:44:23.298,22.37,24.09,29.29,0.016,-0.064,0.802,172.60,-0.064,-0.016,0.802,-179.42,16.06,172.60
15:44:23.633,17.72,20.30,29.83,0.016,-0.064,0.800,172.48,-0.064,-0.016,0.800,-179.28,15.27,172.48
15:44:23.968,20.33,22.01,29.87,0.016,-0.065,0.801,172.52,-0.065,-0.016,0.801,-179.16,15.13,172.52
15:44:24.303,22.13,23.50,29.86,0.016,-0.065,0.802,172.46,-0.065,-0.016,0.802,-177.58,14.48,172.46
15:44:24.638,20.08,21.70,29.86,0.016,-0.065,0.802,172.29,-0.065,-0.016,0.802,-179.37,13.19,172.29
15:44:24.973,21.78,23.44,29.86,0.016,-0.065,0.803,172.44,-0.065,-0.016,0.803,-177.77,14.29,172.44
15:44:25.310,18.09,20.45,29.66,0.016,-0.065,0.802,172.31,-0.065,-0.016,0.802,-179.52,13.02,172.31
15:44:25.645,19.20,20.83,29.86,0.016,-0.065,0.802,172.53,-0.065,-0.016,0.802,-179.25,14.79,172.53
15:44:25.980,18.25,20.24,29.86,0.016,-0.065,0.802,172.53,-0.065,-0.016,0.802,-179.27,14.69,172.53
15:44:26.315,19.15,20.66,29.86,0.016,-0.065,0.803,172.48,-0.065,-0.016,0.803,-179.26,13.83,172.48
15:44:26.653,28.02,29.71,29.55,0.016,-0.065,0.803,172.48,-0.065,-0.016,0.803,-179.26,13.83,172.48
15:44:26.988,19.05,21.31,29.85,0.016,-0.065,0.804,172.47,-0.065,-0.016,0.804,-179.34,13.47,172.47
15:44:27.334,21.00,22.72,28.91,0.016,-0.065,0.803,172.43,-0.065,-0.016,0.803,-179.26,13.09,172.43
15:44:27.669,21.03,23.49,29.86,0.016,-0.065,0.803,172.42,-0.065,-0.016,0.803,-179.24,13.08,172.42
15:44:28.004,20.46,22.08,29.86,0.016,-0.065,0.803,172.42,-0.065,-0.016,0.803,-179.26,13.02,172.42
15:44:28.339,23.25,24.63,29.83,0.016,-0.065,0.803,172.44,-0.065,-0.016,0.803,-179.20,13.17,172.44
15:44:28.674,20.47,22.19,29.85,0.016,-0.065,0.802,172.50,-0.065,-0.016,0.802,-179.42,14.47,172.50
15:44:29.009,19.43,21.13,29.86,0.016,-0.065,0.802,172.56,-0.065,-0.016,0.802,-179.20,14.71,172.56
15:44:29.345,20.97,22.33,29.73,0.016,-0.065,0.801,172.55,-0.065,-0.016,0.801,-179.21,15.16,172.55
15:44:29.683,19.42,21.01,29.62,0.016,-0.065,0.802,172.43,-0.065,-0.016,0.802,-177.57,14.26,172.43
15:44:30.018,25.67,27.36,29.84,0.016,-0.065,0.802,172.32,-0.065,-0.016,0.802,-179.17,13.32,172.32
15:44:30.353,18.17,21.21,29.81,0.016,-0.065,0.801,172.66,-0.065,-0.016,0.801,-177.61,16.24,172.66
15:44:30.688,20.47,22.25,29.86,0.016,-0.065,0.801,172.64,-0.065,-0.016,0.801,-177.50,16.16,172.64
15:44:31.024,21.37,22.76,29.78,0.016,-0.064,0.800,172.53,-0.064,-0.016,0.800,-178.56,15.50,172.53
15:44:31.359,19.16,20.75,29.86,0.016,-0.064,0.800,172.51,-0.064,-0.016,0.800,-178.49,15.52,172.51
15:44:31.694,20.83,22.68,29.84,0.014,-0.067,0.811,171.74,-0.067,-0.014,0.811,177.20,3.48,171.74
15:44:32.031,21.40,24.02,29.71,0.014,-0.067,0.811,171.73,-0.067,-0.014,0.811,177.63,3.22,171.73
15:44:32.366,19.11,20.79,29.85,0.014,-0.067,0.811,171.72,-0.067,-0.014,0.811,177.63,3.08,171.72
15:44:32.701,19.71,21.09,29.86,0.014,-0.067,0.812,171.71,-0.067,-0.014,0.812,177.75,3.01,171.71
15:44:33.035,18.47,20.01,29.86,0.015,-0.067,0.812,171.67,-0.067,-0.015,0.812,178.19,2.94,171.67
15:44:33.370,20.99,22.77,29.85,0.015,-0.067,0.812,171.65,-0.067,-0.015,0.812,178.49,3.37,171.65
15:44:33.705,21.44,22.81,29.86,0.015,-0.067,0.811,171.67,-0.067,-0.015,0.811,178.33,3.18,171.67
15:44:34.040,19.85,21.48,29.86,0.015,-0.067,0.811,171.66,-0.067,-0.015,0.811,178.41,3.28,171.66
15:44:34.375,18.83,20.78,29.85,0.015,-0.067,0.811,171.65,-0.067,-0.015,0.811,178.56,3.32,171.65
15:44:34.710,19.26,21.65,29.83,0.015,-0.067,0.811,171.67,-0.067,-0.015,0.811,177.91,3.20,171.67
15:44:35.046,19.70,21.40,29.84,0.015,-0.067,0.811,171.67,-0.067,-0.015,0.811,178.07,3.21,171.67
15:44:35.381,24.19,25.57,29.85,0.015,-0.067,0.811,171.67,-0.067,-0.015,0.811,178.04,3.27,171.67
15:44:35.716,19.71,21.22,29.84,0.015,-0.067,0.811,171.67,-0.067,-0.015,0.811,177.94,3.17,171.67
15:44:36.051,21.22,23.05,29.84,0.015,-0.067,0.811,171.66,-0.067,-0.015,0.811,177.97,3.16,171.66
15:44:36.386,23.84,25.27,29.85,0.015,-0.067,0.811,171.67,-0.067,-0.015,0.811,177.91,3.17,171.67
15:44:36.721,20.17,21.83,29.84,0.015,-0.067,0.811,171.67,-0.067,-0.015,0.811,177.90,3.18,171.67
15:44:37.056,24.14,25.77,29.85,0.015,-0.067,0.811,171.67,-0.067,-0.015,0.811,177.96,3.13,171.67
15:44:37.391,18.64,21.14,29.84,0.015,-0.067,0.811,171.67,-0.067,-0.015,0.811,178.05,3.15,171.67
15:44:37.726,20.44,22.19,29.85,0.014,-0.067,0.811,171.68,-0.067,-0.014,0.811,177.70,2.95,171.68
15:44:38.061,25.94,27.31,29.87,0.014,-0.067,0.811,171.72,-0.067,-0.014,0.811,177.37,3.06,171.72
15:44:38.396,18.75,20.28,29.86,0.014,-0.067,0.811,171.72,-0.067,-0.014,0.811,177.54,2.96,171.72
15:44:38.731,21.08,23.00,29.85,0.014,-0.067,0.811,171.74,-0.067,-0.014,0.811,177.64,3.03,171.74
15:44:39.066,23.54,25.08,29.85,0.014,-0.067,0.811,171.74,-0.067,-0.014,0.811,177.53,3.03,171.74
15:44:39.401,19.68,21.30,29.85,0.014,-0.067,0.811,171.76,-0.067,-0.014,0.811,177.25,3.10,171.76
15:44:39.736,21.60,23.27,29.85,0.014,-0.067,0.811,171.76,-0.067,-0.014,0.811,177.30,3.18,171.76
15:44:40.071,21.49,23.78,29.84,0.016,-0.064,0.802,172.60,-0.064,-0.016,0.802,-179.24,16.00,172.60
15:44:40.406,29.14,31.26,29.86,0.016,-0.064,0.802,172.60,-0.064,-0.016,0.802,-179.22,16.00,172.60
15:44:40.740,20.70,22.09,29.86,0.014,-0.067,0.811,171.80,-0.067,-0.014,0.811,177.33,3.44,171.80
15:44:41.080,19.77,21.41,29.49,0.016,-0.064,0.802,172.58,-0.064,-0.016,0.802,-179.38,15.74,172.58
15:44:41.415,20.89,22.52,29.83,0.016,-0.064,0.802,172.59,-0.064,-0.016,0.802,-179.35,15.75,172.59
15:44:41.750,21.48,23.91,29.86,0.016,-0.064,0.802,172.58,-0.064,-0.016,0.802,-179.37,15.70,172.58
15:44:42.090,31.13,33.12,29.37,0.016,-0.064,0.801,172.55,-0.064,-0.016,0.801,-179.29,15.67,172.55
15:44:42.425,22.55,23.92,29.85,0.016,-0.065,0.802,172.31,-0.065,-0.016,0.802,-179.23,13.66,172.31
15:44:42.761,24.08,25.91,29.82,0.016,-0.065,0.802,172.31,-0.065,-0.016,0.802,-179.24,13.64,172.31
15:44:43.098,20.14,22.22,29.65,0.016,-0.065,0.802,172.30,-0.065,-0.016,0.802,-179.33,13.35,172.30
15:44:43.438,19.91,21.53,29.41,0.016,-0.065,0.802,172.31,-0.065,-0.016,0.802,-179.19,13.41,172.31
15:44:43.773,19.91,21.84,29.85,0.016,-0.065,0.802,172.28,-0.065,-0.016,0.802,-179.31,13.30,172.28
15:44:44.108,19.33,21.22,29.84,0.016,-0.065,0.802,172.31,-0.065,-0.016,0.802,-178.90,13.68,172.31
15:44:44.443,19.01,20.61,29.86,0.016,-0.065,0.802,172.31,-0.065,-0.016,0.802,-178.90,13.68,172.31
15:44:44.778,18.96,21.91,29.84,0.016,-0.065,0.802,172.28,-0.065,-0.016,0.802,-179.00,13.36,172.28
15:44:45.113,18.13,19.63,29.86,0.016,-0.065,0.802,172.29,-0.065,-0.016,0.802,-179.01,13.29,172.29
15:44:45.448,19.62,21.28,29.85,0.016,-0.065,0.802,172.30,-0.065,-0.016,0.802,-179.10,13.36,172.30
15:44:45.783,20.89,22.26,29.85,0.016,-0.065,0.802,172.27,-0.065,-0.016,0.802,-179.24,13.11,172.27
15:44:46.118,21.59,23.20,29.85,0.016,-0.064,0.801,172.52,-0.064,-0.016,0.801,-178.88,15.19,172.52
15:44:46.456,29.50,31.57,29.57,0.016,-0.065,0.802,172.27,-0.065,-0.016,0.802,-179.18,13.44,172.27
15:44:46.814,30.88,32.76,27.96,0.016,-0.065,0.801,172.64,-0.065,-0.016,0.801,-177.51,16.25,172.64
15:44:47.186,24.91,27.02,26.88,0.016,-0.065,0.800,172.51,-0.065,-0.016,0.800,-177.28,15.47,172.51
15:44:47.551,34.87,36.56,27.40,0.016,-0.064,0.800,172.48,-0.064,-0.016,0.800,-179.01,15.29,172.48
15:44:47.905,28.29,29.65,28.23,0.016,-0.065,0.801,172.37,-0.065,-0.016,0.801,-178.68,14.33,172.37
15:44:48.258,29.25,30.60,28.30,0.016,-0.065,0.801,172.37,-0.065,-0.016,0.801,-178.70,14.31,172.37
15:44:48.630,24.27,25.71,26.88,0.016,-0.065,0.801,172.35,-0.065,-0.016,0.801,-178.82,14.19,172.35
15:44:48.995,25.96,27.46,27.41,0.016,-0.065,0.803,172.30,-0.065,-0.016,0.803,-179.21,13.26,172.30
15:44:49.368,27.13,29.04,26.83,0.016,-0.064,0.801,172.50,-0.064,-0.016,0.801,-179.02,15.10,172.50
15:44:49.733,24.54,26.93,27.36,0.016,-0.064,0.801,172.47,-0.064,-0.016,0.801,-179.07,15.07,172.47
15:44:50.098,26.09,27.83,27.43,0.016,-0.065,0.802,172.30,-0.065,-0.016,0.802,-179.21,13.39,172.30
15:44:50.435,29.49,31.59,29.64,0.016,-0.064,0.801,172.51,-0.064,-0.016,0.801,-179.07,15.24,172.51
15:44:50.773,20.30,22.07,29.56,0.016,-0.065,0.801,172.36,-0.065,-0.016,0.801,-179.07,14.11,172.36
15:44:51.108,18.92,21.09,29.85,0.016,-0.065,0.802,172.29,-0.065,-0.016,0.802,-179.29,13.35,172.29
15:44:51.443,19.36,20.99,29.86,0.016,-0.064,0.800,172.50,-0.064,-0.016,0.800,-179.04,15.36,172.50
15:44:51.778,22.63,24.82,29.84,0.016,-0.064,0.800,172.50,-0.064,-0.016,0.800,-179.04,15.34,172.50
15:44:52.113,18.36,19.91,29.86,0.016,-0.064,0.801,172.50,-0.064,-0.016,0.801,-178.98,15.23,172.50
15:44:52.450,24.32,26.06,29.74,0.016,-0.064,0.801,172.50,-0.064,-0.016,0.801,-178.98,15.50,172.50
15:44:52.795,28.21,29.95,28.94,0.016,-0.064,0.801,172.52,-0.064,-0.016,0.801,-178.96,15.60,172.52
15:44:53.130,21.15,23.09,29.83,0.016,-0.064,0.801,172.51,-0.064,-0.016,0.801,-178.89,15.42,172.51
15:44:53.465,22.24,23.66,29.86,0.016,-0.064,0.802,172.57,-0.064,-0.016,0.802,-179.20,15.79,172.57
15:44:53.803,25.05,26.69,29.66,0.016,-0.064,0.801,172.52,-0.064,-0.016,0.801,-178.98,15.54,172.52
15:44:54.140,21.07,22.45,29.66,0.015,-0.067,0.811,171.77,-0.067,-0.015,0.811,177.25,3.63,171.77
15:44:54.479,20.54,22.16,29.46,0.015,-0.068,0.812,171.62,-0.068,-0.015,0.812,-177.04,0.58,171.62
15:44:54.822,30.50,33.04,29.16,0.015,-0.067,0.811,171.78,-0.067,-0.015,0.811,177.49,3.57,171.78
15:44:55.157,18.61,20.17,29.85,0.014,-0.067,0.812,171.78,-0.067,-0.014,0.812,177.31,3.20,171.78
15:44:55.492,22.41,24.16,29.86,0.014,-0.067,0.812,171.77,-0.067,-0.014,0.812,177.08,3.09,171.77
15:44:55.827,20.66,22.14,29.84,0.014,-0.067,0.812,171.75,-0.067,-0.014,0.812,176.90,3.00,171.75
15:44:56.164,19.44,21.05,29.67,0.014,-0.067,0.811,171.75,-0.067,-0.014,0.811,176.97,3.24,171.75
15:44:56.499,20.14,21.55,29.85,0.014,-0.067,0.811,171.75,-0.067,-0.014,0.811,176.85,3.22,171.75
15:44:56.851,25.40,27.31,28.41,0.014,-0.067,0.811,171.75,-0.067,-0.014,0.811,176.83,3.20,171.75
15:44:57.197,22.69,24.59,28.93,0.014,-0.067,0.811,171.74,-0.067,-0.014,0.811,176.63,3.12,171.74
15:44:57.532,21.12,22.75,29.82,0.014,-0.067,0.811,171.74,-0.067,-0.014,0.811,176.89,3.32,171.74
15:44:57.867,22.58,24.08,29.85,0.014,-0.067,0.811,171.74,-0.067,-0.014,0.811,176.89,3.32,171.74
15:44:58.202,19.05,20.73,29.86,0.014,-0.067,0.811,171.74,-0.067,-0.014,0.811,177.11,3.32,171.74
15:44:58.540,19.97,21.33,29.60,0.014,-0.067,0.811,171.71,-0.067,-0.014,0.811,177.16,3.34,171.71
15:44:58.877,23.21,24.75,29.64,0.014,-0.067,0.811,171.70,-0.067,-0.014,0.811,177.10,3.31,171.70
15:44:59.212,21.37,23.03,29.86,0.014,-0.067,0.811,171.70,-0.067,-0.014,0.811,177.08,3.34,171.70
15:44:59.547,27.40,28.97,29.85,0.014,-0.067,0.811,171.70,-0.067,-0.014,0.811,177.13,3.33,171.70
15:44:59.882,20.19,21.86,29.86,0.017,-0.064,0.801,172.53,-0.064,-0.017,0.801,-178.83,15.64,172.53
15:45:00.217,20.33,22.77,29.86,0.017,-0.064,0.801,172.52,-0.064,-0.017,0.801,-178.85,15.67,172.52
15:45:00.552,18.96,22.00,29.84,0.015,-0.067,0.811,171.76,-0.067,-0.015,0.811,177.39,3.58,171.76
15:45:00.887,19.48,21.80,29.85,0.015,-0.067,0.811,171.74,-0.067,-0.015,0.811,177.22,3.60,171.74
15:45:01.257,21.87,23.57,27.03,0.017,-0.064,0.801,172.51,-0.064,-0.017,0.801,-178.95,15.63,172.51
15:45:01.592,18.52,20.82,29.85,0.016,-0.064,0.801,172.45,-0.064,-0.016,0.801,-179.04,15.15,172.45
15:45:01.930,19.65,21.26,29.61,0.016,-0.064,0.800,172.50,-0.064,-0.016,0.800,-179.08,15.61,172.50
15:45:02.265,21.13,22.47,29.85,0.016,-0.064,0.801,172.53,-0.064,-0.016,0.801,-179.14,15.33,172.53
15:45:02.600,18.03,19.59,29.85,0.016,-0.064,0.801,172.51,-0.064,-0.016,0.801,-179.15,15.10,172.51
15:45:02.935,28.11,29.89,29.81,0.016,-0.064,0.801,172.52,-0.064,-0.016,0.801,-179.18,15.23,172.52
15:45:03.273,20.84,23.03,29.58,0.016,-0.065,0.802,172.47,-0.065,-0.016,0.802,-179.26,14.89,172.47
15:45:03.608,19.87,21.59,29.87,0.016,-0.065,0.802,172.45,-0.065,-0.016,0.802,-179.31,14.70,172.45
15:45:03.943,21.22,22.57,29.85,0.016,-0.065,0.802,172.45,-0.065,-0.016,0.802,-179.28,14.71,172.45
15:45:04.278,21.39,22.97,29.85,0.016,-0.065,0.802,172.48,-0.065,-0.016,0.802,-179.20,14.77,172.48
15:45:04.619,20.61,23.47,29.36,0.016,-0.065,0.803,172.30,-0.065,-0.016,0.803,-179.42,13.25,172.30
15:45:04.956,18.26,19.79,29.65,0.016,-0.065,0.801,172.49,-0.065,-0.016,0.801,-179.15,14.95,172.49
15:45:05.308,24.66,26.36,28.39,0.016,-0.065,0.801,172.50,-0.065,-0.016,0.801,-179.18,14.81,172.50
15:45:05.653,23.35,25.01,28.99,0.016,-0.065,0.802,172.49,-0.065,-0.016,0.802,-179.32,14.77,172.49
15:45:05.988,21.64,23.31,29.83,0.016,-0.065,0.802,172.52,-0.065,-0.016,0.802,-179.31,14.96,172.52
15:45:06.323,19.94,21.59,29.85,0.016,-0.065,0.802,172.50,-0.065,-0.016,0.802,-179.33,14.69,172.50
15:45:06.658,22.56,25.30,29.84,0.016,-0.065,0.802,172.50,-0.065,-0.016,0.802,-179.34,14.70,172.50
15:45:06.993,18.73,20.29,29.84,0.016,-0.065,0.804,172.42,-0.065,-0.016,0.804,-179.45,13.50,172.42
15:45:07.334,19.65,21.53,29.36,0.016,-0.065,0.804,172.42,-0.065,-0.016,0.804,-179.47,13.50,172.42
15:45:07.672,33.89,36.55,29.56,0.016,-0.065,0.803,172.42,-0.065,-0.016,0.803,-179.46,13.56,172.42
15:45:08.009,28.89,31.74,29.70,0.016,-0.065,0.804,172.40,-0.065,-0.016,0.804,-179.47,13.36,172.40
15:45:08.344,21.26,22.64,29.85,0.016,-0.065,0.801,172.53,-0.065,-0.016,0.801,-179.11,14.83,172.53
15:45:08.679,19.76,21.28,29.85,0.016,-0.065,0.802,172.52,-0.065,-0.016,0.802,-179.18,14.66,172.52
15:45:09.014,21.60,23.29,29.85,0.016,-0.065,0.802,172.53,-0.065,-0.016,0.802,-179.12,14.75,172.53
15:45:09.350,20.50,22.88,29.73,0.016,-0.065,0.803,172.44,-0.065,-0.016,0.803,-179.23,13.91,172.44
15:45:09.685,22.84,24.56,29.85,0.016,-0.065,0.802,172.29,-0.065,-0.016,0.802,-179.35,13.20,172.29
15:45:10.021,19.17,20.53,29.82,0.016,-0.065,0.802,172.31,-0.065,-0.016,0.802,-179.33,13.42,172.31
15:45:10.355,21.27,22.98,29.86,0.016,-0.065,0.801,172.48,-0.065,-0.016,0.801,-179.14,14.82,172.48
15:45:10.690,20.38,22.20,29.85,0.016,-0.064,0.801,172.52,-0.064,-0.016,0.801,-179.10,15.22,172.52
15:45:11.025,23.99,25.40,29.85,0.016,-0.064,0.801,172.50,-0.064,-0.016,0.801,-179.13,15.19,172.50
15:45:11.361,19.42,21.00,29.84,0.016,-0.064,0.801,172.49,-0.064,-0.016,0.801,-179.05,15.21,172.49
15:45:11.696,21.71,23.38,29.82,0.016,-0.064,0.802,172.60,-0.064,-0.016,0.802,-179.12,15.87,172.60
15:45:12.041,20.41,22.03,29.00,0.016,-0.064,0.802,172.60,-0.064,-0.016,0.802,-179.13,15.87,172.60
15:45:12.376,20.77,22.40,29.87,0.016,-0.064,0.801,172.48,-0.064,-0.016,0.801,-178.89,15.09,172.48
15:45:12.711,22.06,24.49,29.85,0.016,-0.064,0.801,172.53,-0.064,-0.016,0.801,-178.89,15.45,172.53
15:45:13.055,31.44,33.25,29.00,0.016,-0.064,0.800,172.51,-0.064,-0.016,0.800,-178.89,15.49,172.51
