Timestamp,Algo_ms,Loop_ms,FPS,Pos_X,Pos_Y,Pos_Z,Roll,Pitch,Yaw,Yaw_Cmd,Pitch_Cmd
09:20:17.730,24.43,26.25,27.91,0.000,0.000,0.000,0.00,0.00,0.00,0,0
09:20:18.089,33.40,43.91,27.87,-0.209,0.029,0.564,-172.70,25.38,-34.56,-35,-7
09:20:18.433,19.69,24.35,29.07,-0.151,0.018,0.524,-166.22,14.78,-28.91,-27,-4
09:20:18.776,23.77,27.41,29.12,0.048,-0.021,0.514,-166.22,12.11,-11.21,13,9
09:20:19.122,26.41,29.73,28.91,0.137,-0.023,0.497,-167.82,7.73,-4.44,32,10
09:20:19.459,26.01,28.77,29.65,0.133,-0.005,0.492,-164.92,-1.36,0.80,32,4
09:20:19.805,12.71,16.89,28.93,0.038,0.011,0.515,-165.68,-8.95,-0.96,11,0
09:20:20.146,21.32,25.36,29.31,-0.028,0.014,0.525,-169.44,-15.27,-1.23,-2,0
09:20:20.496,21.61,24.95,28.60,-0.049,0.013,0.528,-172.42,-15.40,0.28,-6,0
09:20:20.832,15.38,20.95,29.76,-0.041,0.014,0.530,-170.92,-13.26,0.24,-5,0
09:20:21.180,22.20,25.74,28.76,-0.006,0.016,0.521,-172.21,-13.89,2.19,0,0
09:20:21.520,16.50,21.89,29.38,-0.004,0.014,0.532,-173.48,-10.64,2.32,2,0
09:20:21.859,24.47,28.02,29.51,-0.008,0.014,0.534,-174.04,-11.12,2.22,0,0
09:20:22.196,15.27,21.19,29.65,-0.013,0.013,0.535,-177.22,-10.24,2.38,0,0
09:20:22.541,23.34,27.08,28.95,-0.011,0.013,0.538,-175.43,-12.22,2.82,0,0
09:20:22.884,13.77,16.66,29.20,-0.008,0.013,0.538,-174.83,-10.22,2.64,0,0
09:20:23.228,22.76,27.00,29.05,-0.006,0.014,0.541,-176.25,-11.73,2.90,0,0
09:20:23.568,27.61,30.30,29.43,0.031,0.017,0.547,-176.37,-12.46,5.39,9,0
09:20:23.908,27.91,32.65,29.43,0.056,0.022,0.532,-171.53,-15.92,7.32,14,-5
09:20:24.253,26.88,30.24,28.98,0.025,0.014,0.539,-171.89,-18.62,7.00,8,0
09:20:24.605,19.59,25.27,28.40,-0.018,0.004,0.539,-170.22,-21.13,5.31,0,0
09:20:24.953,15.45,20.82,28.74,-0.129,-0.002,0.537,-170.41,-16.61,-2.70,-22,0
09:20:25.290,21.79,24.73,29.70,-0.166,-0.000,0.545,-171.80,-6.87,-8.36,-29,0
09:20:25.634,15.17,24.63,29.01,-0.106,-0.001,0.554,-172.76,4.63,-8.18,-16,0
09:20:25.977,24.78,28.23,29.19,0.013,-0.004,0.553,-172.15,6.51,-4.08,6,0
09:20:26.323,14.39,18.74,28.90,0.085,-0.002,0.546,-177.89,-1.10,0.44,20,0
09:20:26.669,16.98,22.83,28.87,0.097,0.001,0.543,-171.83,-4.19,3.83,22,0
09:20:27.006,13.14,16.54,29.67,0.039,0.001,0.547,-172.24,-8.94,4.18,11,0
09:20:27.344,23.76,27.38,29.60,-0.007,0.001,0.547,-174.18,-13.89,4.42,0,0
09:20:27.683,16.25,19.87,29.48,-0.033,0.000,0.548,-173.36,-13.89,4.02,-3,0
09:20:28.023,24.07,27.42,29.41,-0.035,0.001,0.546,-174.26,-17.81,3.77,-3,0
09:20:28.361,19.57,23.92,29.65,-0.028,0.001,0.543,-175.13,-17.55,3.83,0,0
09:20:28.706,40.22,43.77,28.93,-0.021,0.000,0.548,-176.08,-15.87,3.68,0,0
09:20:29.049,28.05,31.05,29.14,-0.018,0.001,0.545,-175.59,-16.08,4.07,0,0
09:20:29.392,15.42,19.99,29.17,-0.019,0.001,0.547,-174.25,-14.95,4.45,0,0
09:20:29.736,18.38,22.15,29.06,-0.020,0.001,0.546,-174.14,-16.34,3.74,0,0
09:20:30.080,15.99,18.71,29.07,-0.017,0.001,0.548,-175.10,-16.65,4.49,0,0
09:20:30.420,25.98,29.62,29.41,-0.017,0.001,0.547,-174.24,-14.75,4.44,0,0
09:20:30.766,17.22,21.02,28.94,-0.016,0.001,0.544,-174.58,-18.27,4.17,0,0
09:20:31.128,32.35,35.79,27.66,-0.015,0.001,0.548,-175.09,-16.45,4.48,0,0
09:20:31.473,15.98,22.29,28.99,-0.013,0.001,0.548,-174.86,-14.85,4.34,0,0
09:20:31.812,18.92,22.99,29.50,-0.015,0.000,0.547,-172.07,-17.43,4.19,0,0
09:20:32.154,16.62,21.21,29.17,-0.014,0.000,0.553,-174.13,-14.64,4.47,0,0
09:20:32.499,25.58,28.80,29.01,-0.014,0.000,0.552,-175.18,-12.56,4.64,0,0
09:20:32.845,20.26,26.34,28.89,-0.015,0.000,0.550,-174.49,-18.26,4.19,0,0
09:20:33.188,16.71,20.72,29.14,-0.013,0.000,0.552,-175.60,-14.22,4.79,0,0
09:20:33.536,28.18,31.07,28.78,-0.015,-0.000,0.557,-172.91,-12.96,4.46,0,0
09:20:33.875,18.50,27.66,29.52,-0.011,-0.000,0.556,-173.75,-15.11,4.90,0,0
09:20:34.213,27.49,30.51,29.58,-0.015,-0.000,0.557,-174.54,-12.36,4.80,0,0
09:20:34.554,15.66,24.58,29.27,-0.014,-0.000,0.557,-174.54,-12.27,4.79,0,0
09:20:34.903,24.80,28.55,28.66,-0.015,-0.000,0.557,-174.54,-12.36,4.80,0,0
09:20:35.242,17.20,20.74,29.51,-0.015,-0.000,0.557,-174.54,-12.36,4.80,0,0
09:20:35.595,20.87,25.20,28.34,-0.015,-0.000,0.557,-174.94,-14.09,4.94,0,0
09:20:35.933,25.27,29.26,29.61,-0.015,-0.000,0.557,-174.94,-14.09,4.94,0,0
09:20:36.275,18.84,23.57,29.17,-0.015,-0.000,0.557,-174.54,-12.36,4.80,0,0
09:20:36.611,22.98,26.14,29.82,-0.013,-0.000,0.557,-174.92,-13.90,4.94,0,0
09:20:36.953,15.38,20.63,29.23,-0.012,-0.000,0.557,-174.92,-13.80,4.93,0,0
09:20:37.299,25.31,28.59,28.93,-0.012,-0.000,0.556,-173.43,-13.56,4.77,0,0
09:20:37.641,17.72,21.16,29.17,-0.012,-0.000,0.556,-173.43,-13.56,4.77,0,0
09:20:37.985,33.28,36.74,29.12,-0.011,-0.000,0.556,-173.75,-15.11,4.90,0,0
09:20:38.340,25.25,28.89,28.17,-0.011,-0.000,0.556,-173.75,-15.11,4.90,0,0
09:20:38.686,18.21,26.70,28.89,-0.012,-0.000,0.557,-174.53,-12.18,4.79,0,0
09:20:39.025,21.72,25.41,29.51,-0.013,-0.000,0.557,-174.92,-13.90,4.94,0,0
09:20:39.364,23.59,27.39,29.45,-0.013,-0.000,0.557,-176.44,-12.38,4.98,0,0
09:20:39.704,27.20,30.38,29.42,-0.013,-0.000,0.557,-174.92,-13.90,4.94,0,0
09:20:40.045,17.48,21.18,29.38,-0.013,-0.000,0.557,-174.92,-13.90,4.94,0,0
09:20:40.388,24.47,28.21,29.16,-0.013,-0.000,0.557,-174.92,-13.90,4.94,0,0
09:20:40.729,31.97,34.63,29.31,-0.012,-0.000,0.556,-173.43,-13.56,4.77,0,0
09:20:41.072,20.55,26.59,29.15,-0.019,-0.003,0.562,-177.97,-16.61,4.62,0,0
09:20:41.413,30.33,33.05,29.31,-0.014,-0.002,0.559,-176.05,-15.01,5.35,0,0
09:20:41.753,18.78,24.13,29.41,-0.018,-0.003,0.560,-177.38,-15.59,4.86,0,0
09:20:42.094,29.29,32.15,29.36,-0.023,-0.003,0.557,-174.30,-13.12,4.11,0,0
09:20:42.440,21.21,28.89,28.88,-0.034,-0.003,0.556,-175.71,-15.63,3.05,-3,0
09:20:42.780,26.71,30.08,29.39,-0.041,-0.004,0.558,-174.78,-11.15,2.70,-4,0
09:20:43.118,23.27,26.98,29.58,-0.033,-0.004,0.554,-173.29,-14.85,2.33,-3,0
09:20:43.457,26.39,29.94,29.50,-0.024,-0.004,0.560,-176.10,-12.28,2.05,0,0
09:20:43.802,15.75,20.49,29.04,-0.020,-0.004,0.559,-171.87,-9.76,2.49,0,0
09:20:44.139,28.51,31.61,29.63,-0.020,-0.004,0.562,-173.20,-7.65,2.38,0,0
09:20:44.476,19.95,28.92,29.64,-0.021,-0.005,0.561,-176.21,-11.13,2.41,0,0
09:20:44.818,16.17,19.92,29.25,-0.021,-0.005,0.561,-176.21,-11.13,2.41,0,0
09:20:45.155,19.35,27.98,29.66,-0.021,-0.005,0.561,-176.21,-11.13,2.41,0,0
09:20:45.491,29.14,31.78,29.76,-0.021,-0.005,0.559,-175.60,-11.42,2.18,0,0
09:20:45.842,14.31,17.45,28.52,-0.018,-0.005,0.561,-178.68,-12.98,2.74,0,0
09:20:46.184,30.19,33.34,29.27,-0.016,-0.005,0.561,-178.68,-12.80,2.74,0,0
09:20:46.525,23.23,26.43,29.32,-0.018,-0.004,0.560,-176.07,-11.75,2.68,0,0
09:20:46.862,25.48,28.09,29.70,-0.020,-0.004,0.558,-174.68,-9.49,2.67,0,0
09:20:47.206,21.76,24.83,29.05,-0.019,-0.004,0.560,-178.03,-10.49,2.71,0,0
09:20:47.552,18.25,22.80,28.92,-0.018,-0.004,0.558,-173.38,-10.89,2.65,0,0
09:20:47.895,20.60,23.01,29.11,-0.014,-0.004,0.558,-179.51,-9.79,2.98,0,0
09:20:48.234,20.02,25.03,29.54,0.014,0.000,0.551,-170.31,-13.64,4.82,6,0
09:20:48.571,21.31,25.01,29.62,-0.122,0.008,0.522,-172.66,-10.38,-6.75,-21,0
09:20:48.915,19.65,27.24,29.06,-0.251,0.033,0.542,-172.62,4.98,-17.44,-45,-9
09:20:49.258,18.04,20.94,29.15,-0.193,0.032,0.575,-173.71,14.80,-19.23,-31,-8
09:20:49.601,21.17,29.70,29.20,-0.068,0.006,0.579,-173.02,24.62,-17.75,-8,0
09:20:49.946,29.91,32.70,28.95,0.040,-0.018,0.559,-171.53,29.63,-13.34,11,7
09:20:50.313,18.45,28.13,27.31,0.157,-0.026,0.498,-165.42,22.22,-2.53,37,10
09:20:50.653,26.97,29.23,29.35,0.209,-0.006,0.467,-168.28,-0.61,1.30,51,4
09:20:50.991,17.43,22.10,29.57,0.157,0.026,0.520,-169.94,-14.80,-2.90,35,-6
09:20:51.335,23.09,26.46,29.07,0.060,0.030,0.565,-176.25,-26.21,-1.71,14,-7
09:20:51.678,16.04,21.89,29.19,0.002,0.021,0.568,-172.49,-29.79,-0.09,3,-4
09:20:52.024,26.22,29.11,28.91,-0.045,0.004,0.560,-171.32,-33.02,-2.15,-5,0
09:20:52.374,28.67,31.72,28.57,-0.089,-0.012,0.569,-173.56,-33.65,-2.39,-13,6
09:20:52.716,19.57,26.45,29.21,-0.122,-0.032,0.584,-177.25,-28.74,-1.59,-19,12
09:20:53.052,30.34,33.48,29.76,-0.117,-0.024,0.581,179.19,-23.85,3.78,-18,9
09:20:53.396,14.76,19.49,29.10,-0.079,0.010,0.590,172.18,-18.43,4.05,-10,0
09:20:53.737,24.10,27.32,29.30,-0.028,0.028,0.596,176.62,-9.35,4.02,0,-6
09:20:54.075,14.51,23.05,29.59,-0.005,0.023,0.594,179.28,-7.39,3.60,2,-5
09:20:54.421,26.86,30.38,28.90,-0.003,0.007,0.595,178.11,-8.38,3.77,3,0
09:20:54.761,17.35,21.51,29.42,-0.007,0.001,0.593,-178.84,-5.40,3.19,0,0
09:20:55.109,23.27,26.48,28.77,-0.009,0.001,0.594,-179.54,-7.41,3.39,0,0
09:20:55.452,24.66,28.61,29.15,-0.008,0.001,0.594,177.93,-6.76,3.87,0,0
09:20:55.796,15.72,20.22,29.06,-0.009,0.001,0.591,179.74,-11.73,3.44,0,0
09:20:56.133,25.12,28.17,29.68,-0.009,0.001,0.589,178.48,-11.92,3.73,0,0
09:20:56.477,15.43,21.64,29.07,-0.005,0.001,0.594,176.20,-10.77,4.46,2,0
09:20:56.812,27.23,29.86,29.81,0.000,0.001,0.601,178.00,-6.58,4.60,3,0
09:20:57.155,19.45,25.15,29.18,-0.005,0.001,0.601,177.96,-6.78,4.60,2,0
09:20:57.493,22.47,25.62,29.55,-0.009,0.001,0.600,178.71,-5.32,4.35,0,0
09:20:57.831,21.82,25.24,29.67,-0.010,0.002,0.590,179.57,-11.78,4.83,0,0
09:20:58.172,25.80,28.98,29.29,-0.101,0.002,0.584,174.32,-0.09,-4.52,-14,0
09:20:58.516,19.16,27.32,29.07,-0.189,0.017,0.599,177.66,-0.33,-14.40,-30,0
09:20:58.854,19.76,24.38,29.57,-0.137,0.018,0.606,-178.46,5.04,-14.88,-20,0
09:20:59.192,17.95,22.09,29.58,-0.009,0.003,0.583,-172.04,7.57,-10.07,0,0
09:20:59.531,26.39,28.89,29.51,0.113,-0.001,0.540,-174.42,13.42,-1.01,26,0
09:20:59.876,19.49,24.24,29.00,0.152,0.007,0.510,-174.34,1.79,6.32,35,0
09:21:00.233,24.74,29.39,28.01,0.109,0.014,0.518,-169.71,-1.94,10.97,25,0
09:21:00.575,19.51,23.40,29.25,-0.002,0.008,0.530,-172.40,-13.34,8.05,2,0
09:21:00.912,17.30,23.13,29.64,-0.089,0.002,0.540,-171.63,-19.32,2.97,-14,0
09:21:01.254,25.76,29.41,29.22,-0.142,-0.001,0.549,-176.43,-8.47,-2.05,-24,0
09:21:01.593,18.48,23.57,29.50,-0.131,0.001,0.554,-173.35,-0.92,-4.88,-21,0
09:21:01.932,14.94,18.28,29.53,-0.070,0.000,0.571,-174.87,1.31,-6.03,-9,0
09:21:02.271,22.07,25.38,29.52,0.018,-0.001,0.559,178.40,-5.57,-2.30,6,0
09:21:02.609,15.44,18.91,29.57,0.127,0.007,0.538,-175.67,-3.93,6.82,28,0
09:21:02.948,22.28,25.62,29.52,0.168,0.021,0.532,-172.43,-9.38,13.90,37,-5
09:21:03.294,27.81,30.35,28.89,0.059,0.012,0.551,-171.81,-20.71,10.98,14,0
09:21:03.636,17.71,22.01,29.27,-0.082,-0.002,0.541,-171.76,-27.14,4.84,-12,0
09:21:03.978,27.12,29.84,29.21,-0.209,-0.005,0.532,-175.19,-9.08,-4.35,-38,0
09:21:04.320,18.39,22.07,29.26,-0.203,-0.003,0.555,-175.10,-7.35,-8.23,-35,0
09:21:04.660,16.42,19.92,29.37,-0.129,0.003,0.564,-172.99,7.02,-11.31,-20,0
09:21:04.996,15.24,21.75,29.77,-0.039,0.002,0.571,-173.18,15.24,-10.62,-3,0
09:21:05.332,27.95,30.40,29.75,0.111,0.000,0.520,-168.57,18.74,0.40,26,0
09:21:05.670,17.67,20.35,29.59,0.179,0.008,0.508,-170.63,5.14,8.10,40,0
09:21:06.014,25.09,28.01,29.04,0.149,0.019,0.507,-170.69,-8.18,12.72,34,-4
09:21:06.366,19.90,24.36,28.45,0.034,0.013,0.533,-170.06,-14.92,12.09,10,0
09:21:06.710,24.25,27.85,29.03,-0.116,-0.010,0.540,-170.08,-26.41,3.07,-19,5
09:21:07.051,26.26,29.09,29.35,-0.237,-0.013,0.541,-176.25,-15.64,-7.66,-43,6
09:21:07.397,20.00,26.00,28.94,-0.221,0.004,0.569,-175.53,-5.28,-11.05,-37,0
09:21:07.737,20.06,23.54,29.40,-0.084,0.012,0.592,-173.94,7.26,-9.73,-11,0
09:21:08.082,14.80,18.01,28.98,0.064,0.009,0.558,-172.91,13.90,-2.41,16,0
09:21:08.424,32.16,34.26,29.28,0.158,0.019,0.500,-171.42,9.59,7.25,37,-5
09:21:08.761,22.85,29.08,29.66,0.145,0.023,0.508,-169.13,-0.72,9.96,33,-6
09:21:09.107,20.35,23.70,28.90,-0.005,0.004,0.529,-168.13,-6.87,5.19,2,0
09:21:09.452,28.14,34.33,28.98,-0.191,-0.010,0.569,179.27,-2.96,-5.76,-32,4
09:21:09.808,19.15,22.51,28.07,-0.209,-0.004,0.592,-177.30,3.62,-10.69,-33,0
09:21:10.159,15.56,20.08,28.52,-0.109,0.003,0.603,-176.16,9.47,-9.01,-15,0
09:21:10.501,25.29,28.82,29.23,0.028,0.001,0.575,-174.01,13.58,-4.45,9,0
09:21:10.846,21.72,24.96,28.94,0.104,0.004,0.542,-177.05,5.27,1.55,24,0
09:21:11.182,26.21,29.18,29.76,0.117,0.014,0.509,-168.36,4.94,7.84,28,0
09:21:11.530,12.96,15.94,28.79,0.047,0.013,0.525,-171.09,-5.10,6.53,13,0
09:21:11.867,21.09,24.42,29.65,-0.039,0.007,0.534,-172.93,-11.06,3.35,-4,0
09:21:12.203,16.64,19.31,29.75,-0.100,0.003,0.546,-175.36,-4.97,0.39,-16,0
09:21:12.546,24.54,28.07,29.14,-0.106,0.002,0.554,-175.66,-0.21,-2.63,-16,0
09:21:12.889,22.70,25.79,29.17,-0.052,0.001,0.562,-174.94,2.03,-1.45,-6,0
09:21:13.229,21.99,25.47,29.42,-0.014,0.001,0.560,-174.57,7.89,-1.01,0,0
09:21:13.569,17.79,20.73,29.38,0.001,0.001,0.560,-175.01,4.50,-0.93,3,0
09:21:13.909,25.56,28.73,29.45,0.002,0.001,0.561,-175.99,7.65,-0.06,3,0
09:21:14.250,22.35,25.47,29.27,-0.006,0.002,0.558,-175.12,4.07,-0.12,0,0
09:21:14.593,19.59,26.27,29.18,-0.012,0.002,0.560,-176.22,0.12,-0.60,0,0
09:21:14.938,22.74,26.23,29.03,-0.015,-0.001,0.548,-172.49,-9.57,-4.02,0,0
09:21:15.282,12.72,15.36,29.02,0.000,0.000,0.000,0.00,0.00,0.00,0,0
09:21:15.622,15.14,18.56,29.43,0.000,0.000,0.000,0.00,0.00,0.00,0,0
09:21:15.957,12.83,17.11,29.82,0.000,0.000,0.000,0.00,0.00,0.00,0,0
09:21:16.300,20.87,24.02,29.23,0.000,0.000,0.000,0.00,0.00,0.00,0,0
09:21:16.656,18.14,21.27,28.09,0.000,0.000,0.000,0.00,0.00,0.00,0,0
09:21:16.998,12.99,16.59,29.17,0.000,0.000,0.000,0.00,0.00,0.00,0,0
09:21:17.336,12.61,15.73,29.65,0.000,0.000,0.000,0.00,0.00,0.00,0,0
